[{"name": "Whiterock Park", "lat": 45.43216449, "lng": -75.62777862}, {"name": "Dr. John Hopps Park", "lat": 45.44034289, "lng": -75.63224018}, {"name": "Upper Duck Island", "lat": 45.46828466, "lng": -75.62073387}, {"name": "London Terrace Park", "lat": 45.45084871, "lng": -75.64990041}, {"name": "St. Germain Park", "lat": 45.42114738, "lng": -75.67561454}, {"name": "Windsor Park Ottawa", "lat": 45.3941112, "lng": -75.67642008}, {"name": "Stirling-Carruthers Park", "lat": 45.40522126, "lng": -75.72809162}, {"name": "Armstrong Park (Old Ottawa)", "lat": 45.40557362, "lng": -75.72441459}, {"name": "Bayview Friendship Park", "lat": 45.40736838, "lng": -75.72384689}, {"name": "Lionel Britton Park", "lat": 45.40342096, "lng": -75.6839093}, {"name": "Elisha Scharf Park", "lat": 45.32590116, "lng": -75.89177893}, {"name": "Seabrooke Park", "lat": 45.2949351, "lng": -75.89265226}, {"name": "Sheperds Grove Park", "lat": 45.43755702, "lng": -76.11737332}, {"name": "Owlshead Park", "lat": 45.1662616, "lng": -75.94310692}, {"name": "Munster North Park", "lat": 45.16768652, "lng": -75.94568074}, {"name": "Hemlock Park", "lat": 45.44928553, "lng": -75.64988263}, {"name": "Escarpment Park (Chimo)", "lat": 45.30849113, "lng": -75.89443209}, {"name": "Beaufort Park", "lat": 45.31162082, "lng": -75.89295349}, {"name": "John Gooch Park", "lat": 45.31421789, "lng": -75.92865481}, {"name": "Meadowbrook Park (Gloucester)", "lat": 45.42158212, "lng": -75.61228879}, {"name": "Harold Diceman Park", "lat": 45.43737197, "lng": -75.56208704}, {"name": "Craighurst Drive Park", "lat": 45.131587, "lng": -75.7230122}, {"name": "Cumberland Village Heritage Museum", "lat": 45.51515374, "lng": -75.38761164}, {"name": "Pat Clark Community Centre", "lat": 45.42865047, "lng": -75.6198023}, {"name": "Gloucester Hydro Park", "lat": 45.43545594, "lng": -75.60951301}, {"name": "Naskapi Ridge Park", "lat": 45.44878395, "lng": -75.59822071}, {"name": "Raphael Brunet Park", "lat": 45.43186893, "lng": -75.69103096}, {"name": "Lindenlea Park", "lat": 45.44454337, "lng": -75.67527037}, {"name": "Tanmount Park", "lat": 45.31784761, "lng": -75.92675511}, {"name": "Sue Nickerson Park", "lat": 45.31931538, "lng": -75.90681589}, {"name": "Kemp Park", "lat": 45.33659837, "lng": -75.6062539}, {"name": "Stormwater Management Area", "lat": 45.44336251, "lng": -75.47066781}, {"name": "Boisdale Park", "lat": 45.44851895, "lng": -75.46453896}, {"name": "Marcel Lalande Park", "lat": 45.47103195, "lng": -75.47354725}, {"name": "Spratt Park", "lat": 45.27993907, "lng": -75.68558059}, {"name": "Provence Park", "lat": 45.46112248, "lng": -75.45612013}, {"name": "Ruisseau Park", "lat": 45.43507051, "lng": -75.52492182}, {"name": "Patterson's Creek Park", "lat": 45.40655909, "lng": -75.68728485}, {"name": "Lytle Park (Kanata)", "lat": 45.32838637, "lng": -75.90438423}, {"name": "Borduas Court Parkette", "lat": 45.32817395, "lng": -75.91041368}, {"name": "Forest Creek Park", "lat": 45.26877692, "lng": -75.90959381}, {"name": "Amberwood Pathway", "lat": 45.26684447, "lng": -75.91525929}, {"name": "Hilltop Park", "lat": 45.23273136, "lng": -75.6876293}, {"name": "Birdland Park", "lat": 45.45226223, "lng": -75.61543275}, {"name": "Eastvale Park", "lat": 45.45924066, "lng": -75.59762684}, {"name": "Pelican Park", "lat": 45.46090587, "lng": -75.47039149}, {"name": "Rose Park", "lat": 45.43491852, "lng": -75.68843824}, {"name": "Whitehaven / George C. Brown Park", "lat": 45.36132003, "lng": -75.77690167}, {"name": "Caldwell-Carver Conservation Area", "lat": 45.45159802, "lng": -75.66846729}, {"name": "Connaught Park", "lat": 45.35854742, "lng": -75.77986132}, {"name": "Holly Acres Park", "lat": 45.32876784, "lng": -75.91124517}, {"name": "Alice Wilson Woods", "lat": 45.32258499, "lng": -75.89937239}, {"name": "Hunt Club Gate Park", "lat": 45.36857871, "lng": -75.64058306}, {"name": "Casgrain Park", "lat": 45.32552871, "lng": -75.89607845}, {"name": "Rowe Park", "lat": 45.30505633, "lng": -75.90681041}, {"name": "St. Paul's Park", "lat": 45.42946764, "lng": -75.64787886}, {"name": "Princess Margriet Park", "lat": 45.39814242, "lng": -75.71895454}, {"name": "August Park", "lat": 45.43986573, "lng": -75.52066584}, {"name": "Lion's Park", "lat": 45.3943831, "lng": -75.75250548}, {"name": "Lincoln Heights Park", "lat": 45.36749674, "lng": -75.79287733}, {"name": "Moloughney Park", "lat": 45.27306192, "lng": -75.75181289}, {"name": "Shearer Park", "lat": 45.30656441, "lng": -75.89122868}, {"name": "Mary Durling Park", "lat": 45.25015663, "lng": -75.91887695}, {"name": "Pine Bluff Park", "lat": 45.26613416, "lng": -75.92048633}, {"name": "Elmridge Park", "lat": 45.44364744, "lng": -75.60422556}, {"name": "Lockwood Park", "lat": 45.44497002, "lng": -75.6114517}, {"name": "Jasmine Park", "lat": 45.44155421, "lng": -75.59240556}, {"name": "Joan O'Malley Park", "lat": 45.27748043, "lng": -75.6871316}, {"name": "Leslie Armstrong Park and Bearbrook Community Hall", "lat": 45.38374263, "lng": -75.33676432}, {"name": "Kinsmen Park", "lat": 45.44289211, "lng": -75.60931981}, {"name": "Ferdinand Park Walkway", "lat": 45.14253211, "lng": -75.60121099}, {"name": "Heather Crowe Park", "lat": 45.3981278, "lng": -75.74691975}, {"name": "Lisgar Parkette", "lat": 45.41473532, "lng": -75.70278629}, {"name": "South River Drive Park", "lat": 45.23067416, "lng": -75.67701399}, {"name": "Barney McCarney Landing", "lat": 45.22120203, "lng": -75.67297802}, {"name": "Mill Street Parkette", "lat": 45.22569771, "lng": -75.68394472}, {"name": "Joshua Bradley Park", "lat": 45.43671617, "lng": -75.56973616}, {"name": "Woodburn Park", "lat": 45.41953265, "lng": -75.60444351}, {"name": "Vanessa Gilles Park", "lat": 45.42258265, "lng": -75.60397419}, {"name": "Island in Rideau River", "lat": 45.26119079, "lng": -75.70533428}, {"name": "Wilfred Murray Park / R.J. Kennedy Community Hall and Arena", "lat": 45.51479022, "lng": -75.40239264}, {"name": "Roslyn Park", "lat": 45.48303985, "lng": -75.54832194}, {"name": "Stitt Street Park", "lat": 45.25746177, "lng": -75.93080423}, {"name": "Van Vliet Park", "lat": 45.22534371, "lng": -75.67474531}, {"name": "Barcham Park", "lat": 45.26591254, "lng": -75.72655875}, {"name": "Gardenway Park", "lat": 45.46591807, "lng": -75.4825227}, {"name": "Palmerston Park", "lat": 45.4290774, "lng": -75.62210509}, {"name": "Syd and Verna Cotton Park", "lat": 45.41763646, "lng": -75.43026038}, {"name": "Golden Triangle Park", "lat": 45.41912668, "lng": -75.68534388}, {"name": "Harrold Place Park", "lat": 45.3859771, "lng": -75.72998542}, {"name": "Varley Park", "lat": 45.33084929, "lng": -75.9087792}, {"name": "Weslock Park", "lat": 45.32955341, "lng": -75.9139045}, {"name": "Henry Park", "lat": 45.29252644, "lng": -75.69703772}, {"name": "Bramble Lane Park - Ridgewood Tot Lot", "lat": 45.14337808, "lng": -75.59536764}, {"name": "Osgoode Village Park", "lat": 45.14814828, "lng": -75.59947954}, {"name": "Hiawatha Park", "lat": 45.47846919, "lng": -75.54596977}, {"name": "Ravine Park (Cumberland)", "lat": 45.47085934, "lng": -75.51149014}, {"name": "Andrew Haydon Park", "lat": 45.35122109, "lng": -75.81696877}, {"name": "Boyce Park", "lat": 45.30571344, "lng": -75.70581965}, {"name": "Gesner Court Park", "lat": 45.29865756, "lng": -75.90092639}, {"name": "McCormick Park", "lat": 45.40247906, "lng": -75.72719342}, {"name": "Gowrie Park", "lat": 45.2933699, "lng": -75.89167023}, {"name": "Graham Ball Softball Diamond", "lat": 45.29302308, "lng": -75.88278771}, {"name": "Woodlot", "lat": 45.3543981, "lng": -75.96696181}, {"name": "Jill Brown Park / Old Forge Community Centre", "lat": 45.35928686, "lng": -75.79412965}, {"name": "Glebe Community Centre and St James Tennis Courts", "lat": 45.40210214, "lng": -75.69164359}, {"name": "Mayfair Park", "lat": 45.47200815, "lng": -75.4990104}, {"name": "Barnab\u00e9 Park", "lat": 45.45999597, "lng": -75.50754569}, {"name": "Thornecliffe Park", "lat": 45.44898363, "lng": -75.62794463}, {"name": "Woodlot (Phase 10A)", "lat": 45.34213815, "lng": -75.93958266}, {"name": "Dragonfly Park", "lat": 45.31598154, "lng": -75.60418111}, {"name": "Former Osgoode Land", "lat": 45.2317254, "lng": -75.4697919}, {"name": "Charlemagne Park", "lat": 45.47773183, "lng": -75.49392571}, {"name": "Racette Park", "lat": 45.46290021, "lng": -75.53708638}, {"name": "Louis Perrault Park", "lat": 45.45744191, "lng": -75.53063592}, {"name": "Hampton Park", "lat": 45.38739335, "lng": -75.73804072}, {"name": "Frank Ryan Park", "lat": 45.35667676, "lng": -75.78857188}, {"name": "Forbes Park", "lat": 45.43944827, "lng": -75.64271541}, {"name": "Parkdale Park", "lat": 45.40141775, "lng": -75.73007599}, {"name": "Bingham Park", "lat": 45.43350912, "lng": -75.69605228}, {"name": "Shirley's Brook Park", "lat": 45.35257285, "lng": -75.92392185}, {"name": "Huntsman Park", "lat": 45.28017613, "lng": -75.86132964}, {"name": "Greens Creek Sliding Hill", "lat": 45.45139075, "lng": -75.57830704}, {"name": "Metz Park", "lat": 45.43835463, "lng": -75.62219071}, {"name": "Loyola Park", "lat": 45.45070563, "lng": -75.59230039}, {"name": "John Kemp Park", "lat": 45.436525, "lng": -75.54821315}, {"name": "D\u00e9carie Park", "lat": 45.48433626, "lng": -75.52950209}, {"name": "Marcel B\u00e9riault Park", "lat": 45.46351142, "lng": -75.51313169}, {"name": "Optimiste Park", "lat": 45.44238732, "lng": -75.66929713}, {"name": "Bordeleau Park", "lat": 45.43597712, "lng": -75.68790697}, {"name": "Raven Park", "lat": 45.376412, "lng": -75.74074775}, {"name": "Cattail Creek Park", "lat": 45.31223063, "lng": -75.88884539}, {"name": "Stonegate Park", "lat": 45.30261199, "lng": -75.89791604}, {"name": "Davis Park", "lat": 45.30552891, "lng": -75.90489942}, {"name": "Joella Park", "lat": 45.13966402, "lng": -75.60482886}, {"name": "Cumberland Park", "lat": 45.43389869, "lng": -75.69268651}, {"name": "Bronson Park", "lat": 45.4166864, "lng": -75.70953071}, {"name": "Emond Park", "lat": 45.43652026, "lng": -75.66508447}, {"name": "Dutchie's Hole Park", "lat": 45.4205605, "lng": -75.66756028}, {"name": "Four Corners Plaza", "lat": 45.13163697, "lng": -75.71662491}, {"name": "Billy Bishop Park", "lat": 45.32018915, "lng": -75.89264396}, {"name": "River Park", "lat": 45.47593478, "lng": -76.21426354}, {"name": "Michael Budd Park", "lat": 45.43306631, "lng": -75.55442971}, {"name": "Bellevue Manor Park", "lat": 45.37306342, "lng": -75.73959246}, {"name": "Ottawa Lowertown Community Centre and Pool", "lat": 45.43461473, "lng": -75.68129907}, {"name": "Leslie Park", "lat": 45.33472641, "lng": -75.78811093}, {"name": "Carlington Park", "lat": 45.37487896, "lng": -75.74432121}, {"name": "Recreational Trail (Hydro Corridor)", "lat": 45.33441573, "lng": -75.73141723}, {"name": "Recreational Trail", "lat": 45.28378966, "lng": -75.88078852}, {"name": "Stormwater Management Area", "lat": 45.34159352, "lng": -75.66971615}, {"name": "Stormwater Management Area", "lat": 45.25157018, "lng": -75.92318303}, {"name": "Taylor Creek Valley", "lat": 45.49298817, "lng": -75.49175762}, {"name": "Bilberry Creek Valley", "lat": 45.47767229, "lng": -75.53175637}, {"name": "Foot Guards Park", "lat": 45.26789372, "lng": -75.72988364}, {"name": "Ivy and Gordon Scharf Park", "lat": 45.22187427, "lng": -75.69601799}, {"name": "Gillespie Park", "lat": 45.34570712, "lng": -75.68957261}, {"name": "Robert Gray Park", "lat": 45.31579567, "lng": -75.89711658}, {"name": "Beaverbrook Pool Park", "lat": 45.32859574, "lng": -75.90185358}, {"name": "Traditions Park", "lat": 45.24288829, "lng": -75.9148561}, {"name": "Alexander Dunn Park", "lat": 45.31732923, "lng": -75.89659289}, {"name": "Beaverpond Park / Graham Beasley Trail", "lat": 45.33092726, "lng": -75.92349079}, {"name": "Sewell Park", "lat": 45.30526604, "lng": -75.90150942}, {"name": "Champagne Bath", "lat": 45.4307263, "lng": -75.68659962}, {"name": "South March Highlands Conservation Forest - Rural Portion", "lat": 45.33589275, "lng": -75.95678705}, {"name": "Inspiration Park", "lat": 45.36500858, "lng": -75.7894124}, {"name": "Chapman Mills Park", "lat": 45.27919114, "lng": -75.71679366}, {"name": "McKellar Park", "lat": 45.3829792, "lng": -75.765571}, {"name": "Longleaf Park", "lat": 45.44047182, "lng": -75.53262988}, {"name": "Stormwater Management Area", "lat": 45.2834017, "lng": -75.67031628}, {"name": "Cunningham Woods", "lat": 45.39039182, "lng": -75.65899732}, {"name": "George Brancato Park", "lat": 45.3318583, "lng": -75.79306472}, {"name": "Edwards Park", "lat": 45.3220173, "lng": -75.4647174}, {"name": "Strathcona Park", "lat": 45.42690936, "lng": -75.67184788}, {"name": "Tiger Lily Park", "lat": 45.31789084, "lng": -75.5971907}, {"name": "Alexander Park", "lat": 45.3801766, "lng": -75.73174433}, {"name": "Cardinal Glen Park", "lat": 45.44554132, "lng": -75.65106436}, {"name": "Stonemeadow Park", "lat": 45.2880205, "lng": -75.84493063}, {"name": "Stonecrest Park", "lat": 45.28709863, "lng": -75.7165109}, {"name": "Wincanton Park", "lat": 45.48965449, "lng": -75.50058083}, {"name": "Pinecrest Recreation Complex and Park", "lat": 45.34990341, "lng": -75.77461857}, {"name": "Senator Eugene Forsey Park", "lat": 45.39593296, "lng": -75.69736119}, {"name": "Howard Darwin Centennial Arena", "lat": 45.34191118, "lng": -75.72653926}, {"name": "Rockcliffe Park Library / Community Hall", "lat": 45.45075988, "lng": -75.67848162}, {"name": "Poole Creek Park", "lat": 45.25882923, "lng": -75.93077008}, {"name": "Uplands Park", "lat": 45.34849803, "lng": -75.68295038}, {"name": "New Orchard Park", "lat": 45.37239007, "lng": -75.77783198}, {"name": "Recreational Trail (Hydro Corridor)", "lat": 45.33599139, "lng": -75.73629324}, {"name": "Open Space (Hydro Corridor)", "lat": 45.33398254, "lng": -75.74991555}, {"name": "Gil-O-Julien Park", "lat": 45.42863562, "lng": -75.661029}, {"name": "Norman Edwards Park", "lat": 45.44839579, "lng": -75.46069652}, {"name": "Tighe Street River Access", "lat": 45.22627307, "lng": -75.68171632}, {"name": "Joseph Laflamme Park", "lat": 45.4909071, "lng": -75.49514328}, {"name": "Joseph V\u00e9zina Park", "lat": 45.45241099, "lng": -75.46082193}, {"name": "Brigatine Park", "lat": 45.28678916, "lng": -75.91493041}, {"name": "Stormwater Management Area", "lat": 45.4575771, "lng": -75.4521544}, {"name": "Bruff Park", "lat": 45.36292164, "lng": -75.63117891}, {"name": "Steve MacLean Park", "lat": 45.36283263, "lng": -75.7159762}, {"name": "Open Space", "lat": 45.35111305, "lng": -75.92806816}, {"name": "Twin Lakes Park", "lat": 45.27383334, "lng": -75.57768496}, {"name": "Greenboro Park and Community Centre", "lat": 45.36207846, "lng": -75.63691589}, {"name": "Eccolands Park", "lat": 45.31482636, "lng": -75.69569679}, {"name": "Sawyer's Meadow Park", "lat": 45.28296732, "lng": -75.84201149}, {"name": "Traditions Woodlot", "lat": 45.24029621, "lng": -75.91363125}, {"name": "Baden Park", "lat": 45.3403792, "lng": -75.64021561}, {"name": "Charing Park", "lat": 45.33202042, "lng": -75.76596509}, {"name": "Windsor Park Gloucester", "lat": 45.34473136, "lng": -75.65956634}, {"name": "Woodlot", "lat": 45.36359119, "lng": -75.62120326}, {"name": "Weatherston Street Park", "lat": 45.3551952, "lng": -75.93441338}, {"name": "Walden Park", "lat": 45.32751584, "lng": -75.92094738}, {"name": "Bracken Field", "lat": 45.2311837, "lng": -75.68290786}, {"name": "Open Space", "lat": 45.30487392, "lng": -75.90457166}, {"name": "Davidson Park", "lat": 45.26561874, "lng": -75.7146712}, {"name": "North Harrow Park", "lat": 45.27889673, "lng": -75.74594061}, {"name": "Grenfell Glen Park", "lat": 45.31519495, "lng": -75.73125559}, {"name": "Country Place Park", "lat": 45.3211208, "lng": -75.70856175}, {"name": "Westboro Beach", "lat": 45.39528201, "lng": -75.7610962}, {"name": "Stormwater Management Area", "lat": 45.26945113, "lng": -75.92701498}, {"name": "Open Space", "lat": 45.34556342, "lng": -75.93095605}, {"name": "Fran\u00e7ois Dupuis Recreation Centre", "lat": 45.45387325, "lng": -75.46295194}, {"name": "Recreational Trail (Hydro Corridor)", "lat": 45.47512565, "lng": -75.52902709}, {"name": "Grovewoods Park", "lat": 45.19948, "lng": -75.83955924}, {"name": "Knowlton Park", "lat": 45.29130335, "lng": -75.71130706}, {"name": "Scisson's Park", "lat": 45.28288042, "lng": -75.84940777}, {"name": "Drumlins Park", "lat": 45.2743814, "lng": -75.70591891}, {"name": "Doug Frobel Park", "lat": 45.34893422, "lng": -75.74197317}, {"name": "Brian Parsons Park", "lat": 45.2942321, "lng": -75.85370988}, {"name": "Rick Lytle Park", "lat": 45.31337597, "lng": -76.0709025}, {"name": "Dunollie Park", "lat": 45.35591829, "lng": -75.9421777}, {"name": "Prescott-Russell Pathway", "lat": 45.41989424, "lng": -75.44083562}, {"name": "Okanagan Park", "lat": 45.33539637, "lng": -75.80234997}, {"name": "Whalen Park", "lat": 45.32205693, "lng": -75.92179764}, {"name": "West Ridge Park \"A\"", "lat": 45.26202918, "lng": -75.9421399}, {"name": "Porcupine Park", "lat": 45.42460285, "lng": -76.02003072}, {"name": "Gateshead Park", "lat": 45.35202442, "lng": -75.93092947}, {"name": "Shefford Sports Park", "lat": 45.45779523, "lng": -75.58828921}, {"name": "Grovehurst Park", "lat": 45.27703105, "lng": -75.71246667}, {"name": "Chapman Mills East Woodlot", "lat": 45.27335701, "lng": -75.71306655}, {"name": "Crossing Bridge Park", "lat": 45.26283655, "lng": -75.93468418}, {"name": "South Village Park", "lat": 45.26259042, "lng": -75.58447436}, {"name": "Central Park", "lat": 45.40665106, "lng": -75.69138622}, {"name": "Fairlea Park", "lat": 45.37654855, "lng": -75.63997761}, {"name": "Kaladar Park", "lat": 45.37297818, "lng": -75.67261604}, {"name": "Bell Centennial Arena and Bell Arena Park", "lat": 45.32432163, "lng": -75.81083627}, {"name": "Westcliffe Park", "lat": 45.31583025, "lng": -75.83513745}, {"name": "Martin Street Park", "lat": 45.19177226, "lng": -75.83432839}, {"name": "W.C. Bowes Park", "lat": 45.35141704, "lng": -75.94142005}, {"name": "Valleystream East Park", "lat": 45.33343065, "lng": -75.79487839}, {"name": "Hintonburg Park", "lat": 45.40319755, "lng": -75.72370416}, {"name": "Recreational Trail (Hydro Corridor)", "lat": 45.29833578, "lng": -75.86851483}, {"name": "Open Space", "lat": 45.35903615, "lng": -75.63112002}, {"name": "Recreational Trail", "lat": 45.32657215, "lng": -75.75727976}, {"name": "Constance Buckham's Bay Community Centre Park", "lat": 45.49924781, "lng": -76.09266028}, {"name": "Ottawa South Community Centre", "lat": 45.39466964, "lng": -75.68181049}, {"name": "Redpath Park", "lat": 45.28631481, "lng": -75.70973522}, {"name": "Recreational Trail", "lat": 45.36248877, "lng": -75.64182302}, {"name": "Fairmile View Park", "lat": 45.06816865, "lng": -75.65082942}, {"name": "Beechcliffe Park", "lat": 45.33331011, "lng": -75.75599959}, {"name": "Trend-Arlington Park", "lat": 45.32706062, "lng": -75.7845682}, {"name": "Burnford Park", "lat": 45.32421281, "lng": -75.78156869}, {"name": "Williams Park", "lat": 45.31903704, "lng": -75.82762877}, {"name": "George Wilson Park", "lat": 45.32352332, "lng": -75.82465177}, {"name": "Trillium Park (Nepean)", "lat": 45.36235453, "lng": -75.73179287}, {"name": "Roundhay Park / Starwood Park", "lat": 45.32660959, "lng": -75.76522198}, {"name": "Donland Park", "lat": 45.34086906, "lng": -75.74814943}, {"name": "Olmstead Park", "lat": 45.34221799, "lng": -75.74633881}, {"name": "Country Place Finger Park", "lat": 45.31976495, "lng": -75.71141181}, {"name": "Kittiwake Park", "lat": 45.26800766, "lng": -75.9427982}, {"name": "Ladybirds Park", "lat": 45.26786561, "lng": -75.94887251}, {"name": "Laumann Park", "lat": 45.26647223, "lng": -75.93496936}, {"name": "Fernbank Wetland", "lat": 45.24304628, "lng": -75.91715315}, {"name": "Harold Brown Park", "lat": 45.20358194, "lng": -75.83191219}, {"name": "Centrum Pathway", "lat": 45.48319996, "lng": -75.50681181}, {"name": "Cobe Parkette", "lat": 45.15885477, "lng": -75.64606959}, {"name": "Langstaff Park", "lat": 45.3497023, "lng": -76.03380895}, {"name": "Josie Anselmo Memorial Park", "lat": 45.2449292, "lng": -75.59459729}, {"name": "Glenmanor Park", "lat": 45.34153104, "lng": -75.73378168}, {"name": "Quinpool Park", "lat": 45.31721202, "lng": -75.82476187}, {"name": "Bateman Park", "lat": 45.32764662, "lng": -75.77394806}, {"name": "Meadowlands Park", "lat": 45.36591193, "lng": -75.70883466}, {"name": "Ascot Park", "lat": 45.32203314, "lng": -75.81867533}, {"name": "Kingsmere Park", "lat": 45.36520368, "lng": -75.76254155}, {"name": "Agincourt Park", "lat": 45.36023353, "lng": -75.75394154}, {"name": "CARDELREC Recreation Complex (Goulbourn)", "lat": 45.26230411, "lng": -75.90711022}, {"name": "Dunrobin Community Centre", "lat": 45.42169031, "lng": -76.02535694}, {"name": "Uplands Pathway Network", "lat": 45.3447316, "lng": -75.68462131}, {"name": "Blair Road Boat Launch (NCC)", "lat": 45.46313398, "lng": -75.62330934}, {"name": "Weatherly Park", "lat": 45.36358132, "lng": -75.96964501}, {"name": "Klondike Road Park", "lat": 45.34949409, "lng": -75.93747471}, {"name": "Parkland (760 Lakeridge Drive)", "lat": 45.44630229, "lng": -75.47399992}, {"name": "Donoghue Memorial Park", "lat": 45.32650079, "lng": -75.81259691}, {"name": "Parkland (Hydro Corridor)", "lat": 45.33529961, "lng": -75.74414893}, {"name": "Recreational Trail", "lat": 45.27701919, "lng": -75.74712593}, {"name": "Open Space", "lat": 45.38923993, "lng": -75.68180989}, {"name": "Kars Community Park", "lat": 45.14923676, "lng": -75.64988061}, {"name": "Huntley Curling Club", "lat": 45.34827602, "lng": -76.03563821}, {"name": "Deer Run Park", "lat": 45.2501879, "lng": -75.92655908}, {"name": "Recreational Trail", "lat": 45.45131828, "lng": -75.67448547}, {"name": "Open Space", "lat": 45.48057619, "lng": -76.03330354}, {"name": "Pickford Park", "lat": 45.3085253, "lng": -75.88307914}, {"name": "Entrance Park", "lat": 45.32611967, "lng": -75.81709908}, {"name": "Weybridge Park", "lat": 45.26993707, "lng": -75.76937346}, {"name": "Larkin Park", "lat": 45.28233428, "lng": -75.76199299}, {"name": "Palmadeo Park", "lat": 45.28000447, "lng": -75.73236082}, {"name": "Woodlot", "lat": 45.43773915, "lng": -75.54356311}, {"name": "Recreational Trail", "lat": 45.32625895, "lng": -75.92608996}, {"name": "Mowat Farm Park", "lat": 45.27793467, "lng": -75.7661412}, {"name": "Topley Park", "lat": 45.37452981, "lng": -75.61950301}, {"name": "Willand Lane Woods", "lat": 45.47848231, "lng": -76.08089176}, {"name": "Whitewood Avenue Park", "lat": 45.2259209, "lng": -75.69220235}, {"name": "Oldfield Park", "lat": 45.2805372, "lng": -75.71168214}, {"name": "Winterwood Park", "lat": 45.36838275, "lng": -75.62783739}, {"name": "Voyageur Park", "lat": 45.47663352, "lng": -75.55414476}, {"name": "Beryl Gaffney Park", "lat": 45.25187328, "lng": -75.70744774}, {"name": "Richmond Lions Community Park", "lat": 45.1979194, "lng": -75.84316968}, {"name": "Totteridge Park", "lat": 45.28244532, "lng": -75.73649724}, {"name": "Bannockburn Park", "lat": 45.36132512, "lng": -75.97826272}, {"name": "Calaveras Park", "lat": 45.27730392, "lng": -75.73879042}, {"name": "Rodeo Park", "lat": 45.27504119, "lng": -75.74246802}, {"name": "St. Joseph Boulevard Woods", "lat": 45.48557572, "lng": -75.49273923}, {"name": "Metcalfe Community Centre", "lat": 45.23004424, "lng": -75.46864002}, {"name": "Greenbank Park", "lat": 45.28575099, "lng": -75.75494776}, {"name": "Pheasant Run Park", "lat": 45.27851091, "lng": -75.77551186}, {"name": "Open Space (Hydro Corridor)", "lat": 45.32226469, "lng": -75.78262312}, {"name": "Paul Landry Park", "lat": 45.34840824, "lng": -75.67184246}, {"name": "Shirley's Brook Corridor", "lat": 45.3598964, "lng": -75.93054799}, {"name": "Open Space", "lat": 45.18724095, "lng": -75.83934781}, {"name": "Centrepointe Park", "lat": 45.34209094, "lng": -75.76794707}, {"name": "Medhurst Park", "lat": 45.33543208, "lng": -75.74453178}, {"name": "Briargreen Park", "lat": 45.33751288, "lng": -75.77888235}, {"name": "Ken Ross Park", "lat": 45.28274082, "lng": -75.74199212}, {"name": "Cumberland Nature Trail", "lat": 45.50757558, "lng": -75.4163337}, {"name": "W.J. Bell Rotary Peace Park", "lat": 45.24956487, "lng": -75.91117346}, {"name": "Sandwell Green Park", "lat": 45.32414517, "lng": -75.89937239}, {"name": "Open Space", "lat": 45.46469376, "lng": -76.21161478}, {"name": "Recreational Trail", "lat": 45.26864398, "lng": -75.77369762}, {"name": "Recreational Trail", "lat": 45.36553411, "lng": -75.64218853}, {"name": "Woodlot", "lat": 45.49615313, "lng": -76.10836196}, {"name": "Abbott-Iber Woodlot", "lat": 45.27217662, "lng": -75.90156389}, {"name": "Recreational Trail (Hydro Corridor)", "lat": 45.29803298, "lng": -75.86761732}, {"name": "Recreational Trail (Hydro Corridor)", "lat": 45.47110939, "lng": -75.46663957}, {"name": "Recreational Trail", "lat": 45.24440675, "lng": -75.91631452}, {"name": "Evergreen Park", "lat": 45.37298019, "lng": -75.75367416}, {"name": "Open Space", "lat": 45.42051845, "lng": -75.43651078}, {"name": "Routhier Community Centre", "lat": 45.432055, "lng": -75.69150395}, {"name": "Iona Park", "lat": 45.39229288, "lng": -75.74240256}, {"name": "Kilreen Park", "lat": 45.34664761, "lng": -75.78370784}, {"name": "Qualicum Park", "lat": 45.33709769, "lng": -75.79921831}, {"name": "Byron Linear Tramway Park", "lat": 45.38317087, "lng": -75.76457165}, {"name": "Annie Pootoogook Park", "lat": 45.42226484, "lng": -75.6772049}, {"name": "Orlando Park", "lat": 45.38133091, "lng": -75.65740242}, {"name": "Dale Park", "lat": 45.40909251, "lng": -75.65969524}, {"name": "General Burns Park", "lat": 45.35231812, "lng": -75.72028873}, {"name": "Ottawa West Community Support", "lat": 45.40208842, "lng": -75.72696007}, {"name": "WRENS Way", "lat": 45.38337254, "lng": -75.65514801}, {"name": "Taylor Park", "lat": 45.14444103, "lng": -75.61211865}, {"name": "Bearbrook Park and Pool", "lat": 45.43413707, "lng": -75.56388954}, {"name": "Otterson Park", "lat": 45.35898324, "lng": -75.68644716}, {"name": "Dossetter Park", "lat": 45.3691785, "lng": -75.61232522}, {"name": "Recreational Trail (Hydro Corridor)", "lat": 45.32510465, "lng": -75.79072871}, {"name": "Tallwood Park", "lat": 45.34076538, "lng": -75.76008392}, {"name": "Arlington Woods Park", "lat": 45.32177903, "lng": -75.78633527}, {"name": "Trappers Park", "lat": 45.34631628, "lng": -75.64520347}, {"name": "Conroy Park", "lat": 45.36745949, "lng": -75.61960976}, {"name": "Recreational Trail (Hydro Corridor)", "lat": 45.42716206, "lng": -75.62053122}, {"name": "Sieveright Park", "lat": 45.3555433, "lng": -75.63546096}, {"name": "Cedarhill Estates Park", "lat": 45.28567549, "lng": -75.79725065}, {"name": "Brookshire Park", "lat": 45.35859421, "lng": -75.92871332}, {"name": "Fisher Heights Park", "lat": 45.36494945, "lng": -75.72114937}, {"name": "Forestview Park", "lat": 45.3121897, "lng": -75.83419929}, {"name": "Dunlop Park", "lat": 45.29796449, "lng": -75.89369166}, {"name": "Calwood Park", "lat": 45.24398291, "lng": -75.5667098}, {"name": "Royal 22e R\u00e9giment Park", "lat": 45.48230016, "lng": -75.50863458}, {"name": "Pioneer Plains Park", "lat": 45.27703221, "lng": -75.93505346}, {"name": "Archie Park", "lat": 45.49340265, "lng": -76.09336457}, {"name": "Heron-Walkley Park", "lat": 45.37656059, "lng": -75.65532706}, {"name": "Ottawa Rowing Club", "lat": 45.43530006, "lng": -75.6995499}, {"name": "Recreational Trail (Hydro Corridor)", "lat": 45.45965579, "lng": -75.47294268}, {"name": "Jock River Park", "lat": 45.18683159, "lng": -75.83368503}, {"name": "Recreational Trail (Hydro Corridor)", "lat": 45.46283981, "lng": -75.4749707}, {"name": "Heart's Desire Forest", "lat": 45.26177889, "lng": -75.71344636}, {"name": "Reeve Craig Park", "lat": 45.07378295, "lng": -75.64327627}, {"name": "Recreational Trail (Hydro Corridor)", "lat": 45.34434629, "lng": -75.93620838}, {"name": "Viewmount Park", "lat": 45.34616569, "lng": -75.71842725}, {"name": "Poole Creek Ravine", "lat": 45.28710147, "lng": -75.91558654}, {"name": "Brigitta Park", "lat": 45.2766989, "lng": -75.86472735}, {"name": "Open Space", "lat": 45.18700608, "lng": -75.83259698}, {"name": "Woodlot", "lat": 45.50286533, "lng": -76.11704836}, {"name": "Goulbourn Lawn Bowling Club", "lat": 45.23254582, "lng": -75.90231221}, {"name": "Rosetta Park", "lat": 45.28828766, "lng": -75.70609618}, {"name": "River's Bend Park", "lat": 45.27798607, "lng": -75.69896855}, {"name": "Neill Nesbitt Park", "lat": 45.28703431, "lng": -75.74834496}, {"name": "McKenna Park / Jockvale Heritage Building", "lat": 45.26918446, "lng": -75.75068639}, {"name": "Village Square Park", "lat": 45.25863829, "lng": -75.92005075}, {"name": "Voyager Creek Valley", "lat": 45.45103585, "lng": -75.5450079}, {"name": "Recreational Trail (Hydro Corridor)", "lat": 45.42303027, "lng": -75.6032758}, {"name": "Woodlot", "lat": 45.41557212, "lng": -75.43099356}, {"name": "Tanglewood Park", "lat": 45.33639137, "lng": -75.7302441}, {"name": "Lytle Park (Nepean)", "lat": 45.27534225, "lng": -75.79411219}, {"name": "Arnold Park", "lat": 45.31269235, "lng": -75.82456972}, {"name": "St. Joseph Boulevard Woods", "lat": 45.48814832, "lng": -75.48016476}, {"name": "Eldon Craig Park", "lat": 45.22879639, "lng": -75.47497972}, {"name": "Bella Vista Park", "lat": 45.51142169, "lng": -75.4591646}, {"name": "Kinsella Park", "lat": 45.46834798, "lng": -75.49886212}, {"name": "Mariah Park", "lat": 45.46178069, "lng": -75.47384574}, {"name": "Capital Park", "lat": 45.39835983, "lng": -75.69293453}, {"name": "Luc Major Park", "lat": 45.48295082, "lng": -75.53364298}, {"name": "Recreational Trail", "lat": 45.48103484, "lng": -75.50261805}, {"name": "RECREATION TRAIL - 81 SHETLAND WAY", "lat": 45.30118527, "lng": -75.86143231}, {"name": "Glabar Park", "lat": 45.37135496, "lng": -75.76371639}, {"name": "Brown's Inlet Park", "lat": 45.39729107, "lng": -75.68986401}, {"name": "Trojan Park", "lat": 45.43307725, "lng": -75.63715949}, {"name": "Glen Cairn Reservoir (Forest)", "lat": 45.30112389, "lng": -75.89016139}, {"name": "Voyager Creek Valley", "lat": 45.45809138, "lng": -75.53840219}, {"name": "Recreational Trail", "lat": 45.41452979, "lng": -75.41863954}, {"name": "Father Richard Ward Park", "lat": 45.47160577, "lng": -75.55144429}, {"name": "Jeanne D'Arc Park", "lat": 45.47417756, "lng": -75.54573259}, {"name": "Recreational Trail", "lat": 45.35930001, "lng": -75.69964234}, {"name": "Lynda Lane Park", "lat": 45.39728186, "lng": -75.64540708}, {"name": "Crantham Park", "lat": 45.26249522, "lng": -75.93612058}, {"name": "Bob Slack Park", "lat": 45.18335592, "lng": -75.83243146}, {"name": "Rockway Park", "lat": 45.34112721, "lng": -75.77811694}, {"name": "Nepean Creative Arts Centre", "lat": 45.32856436, "lng": -75.82203473}, {"name": "Borden Farm Park", "lat": 45.34715243, "lng": -75.72187047}, {"name": "Robert Andrew Russell Park", "lat": 45.39482096, "lng": -75.65128046}, {"name": "Ben Franklin Park West", "lat": 45.32393691, "lng": -75.77432022}, {"name": "Maplehill Park", "lat": 45.25020037, "lng": -75.71019648}, {"name": "McKinley Park", "lat": 45.35116223, "lng": -75.92341026}, {"name": "Recreational Trail", "lat": 45.27650119, "lng": -75.77836989}, {"name": "Andy Shields Park", "lat": 45.25926721, "lng": -75.56082141}, {"name": "North Sawmill Creek Park", "lat": 45.35155269, "lng": -75.64367491}, {"name": "Heatherington Park", "lat": 45.37363524, "lng": -75.6475066}, {"name": "Walter Upton-Collins Park", "lat": 45.24286056, "lng": -75.69200294}, {"name": "Riverside South Stormwater Network", "lat": 45.28291915, "lng": -75.6860511}, {"name": "Bilberry Park", "lat": 45.47825475, "lng": -75.52975323}, {"name": "Morrison Park", "lat": 45.34497471, "lng": -75.79435141}, {"name": "Ev Tremblay Park", "lat": 45.39952028, "lng": -75.71157873}, {"name": "Peace Park", "lat": 45.14711548, "lng": -75.60785132}, {"name": "Sharel Park", "lat": 45.38211129, "lng": -75.63890074}, {"name": "John Murphy Park", "lat": 45.39355716, "lng": -75.66818628}, {"name": "Carrol Homestead Community Park / Corkery Community Centre", "lat": 45.26008472, "lng": -76.06187509}, {"name": "Ben Franklin Place", "lat": 45.3443461, "lng": -75.76235017}, {"name": "Weston Park", "lat": 45.39568146, "lng": -75.62539276}, {"name": "Monaghan Forest Park", "lat": 45.26834762, "lng": -75.81476889}, {"name": "Playfair Park", "lat": 45.39130262, "lng": -75.64533156}, {"name": "Delorme Park", "lat": 45.4572793, "lng": -75.51063142}, {"name": "Brighton Beach Park", "lat": 45.39821445, "lng": -75.67319682}, {"name": "Garfield Park", "lat": 45.36472459, "lng": -75.76016717}, {"name": "Raymond Chabot Grant Thorton Park", "lat": 45.42038489, "lng": -75.65408426}, {"name": "Lakeview Park", "lat": 45.34616207, "lng": -75.82370451}, {"name": "Barwell Park", "lat": 45.35031247, "lng": -75.79994422}, {"name": "Bathgate Park", "lat": 45.442337, "lng": -75.62559133}, {"name": "Marsha Park", "lat": 45.48526311, "lng": -75.51180323}, {"name": "Robert Park", "lat": 45.48684586, "lng": -75.51590066}, {"name": "Joe Jamieson Park", "lat": 45.48056493, "lng": -75.52392872}, {"name": "Royal Ridge Park", "lat": 45.48892951, "lng": -75.47630435}, {"name": "McNabb Park", "lat": 45.40896914, "lng": -75.70287484}, {"name": "Cedar Mills Park", "lat": 45.45986444, "lng": -75.52285915}, {"name": "Osborne Park", "lat": 45.38905052, "lng": -75.68350275}, {"name": "Nepean Creek Park / Charmaine Hooper Fields", "lat": 45.34722278, "lng": -75.71190817}, {"name": "Kenson Park", "lat": 45.35411779, "lng": -75.76549766}, {"name": "Riverview Park", "lat": 45.40531063, "lng": -75.65629868}, {"name": "Fielding Park", "lat": 45.3586679, "lng": -75.6842543}, {"name": "Corkstown Park", "lat": 45.34608008, "lng": -75.82741359}, {"name": "Anne Robinson Park", "lat": 45.23812328, "lng": -75.69132945}, {"name": "Terry Carisse Park", "lat": 45.25231509, "lng": -75.80846363}, {"name": "Keyrock Park", "lat": 45.32127298, "lng": -75.93039191}, {"name": "Pike Park", "lat": 45.36680851, "lng": -75.62644733}, {"name": "Inverness Park", "lat": 45.35889509, "lng": -75.72227556}, {"name": "Sherry Lane Park", "lat": 45.32765037, "lng": -75.75476454}, {"name": "Greely Village Park", "lat": 45.26533634, "lng": -75.5515381}, {"name": "Reeves Park", "lat": 45.3855035, "lng": -75.65865116}, {"name": "Marble Park", "lat": 45.36692897, "lng": -75.68079144}, {"name": "Stanley Park", "lat": 45.2458909, "lng": -75.58276554}, {"name": "Honey Gables Park", "lat": 45.28323685, "lng": -75.69609023}, {"name": "Rideau View Park", "lat": 45.27328333, "lng": -75.68555983}, {"name": "Lorry Greenberg Park", "lat": 45.36882266, "lng": -75.75868163}, {"name": "Linear Park", "lat": 45.43485026, "lng": -75.69059923}, {"name": "Greenlawn Park", "lat": 45.3671719, "lng": -75.74540044}, {"name": "Talcy Park", "lat": 45.48769686, "lng": -75.48053711}, {"name": "Mooney's Bay Park", "lat": 45.36845568, "lng": -75.69197122}, {"name": "Lansdowne Park", "lat": 45.39948102, "lng": -75.68177686}, {"name": "Recreational Trail (Hydro Corridor)", "lat": 45.35058819, "lng": -75.94931959}, {"name": "Princess Louise Park", "lat": 45.48246769, "lng": -75.49449504}, {"name": "Rosehill Park", "lat": 45.28868535, "lng": -75.91748212}, {"name": "Owl Park", "lat": 45.3546477, "lng": -75.66404441}, {"name": "Echo Drive Parkette", "lat": 45.39845141, "lng": -75.67871935}, {"name": "Meadowvale Terrace Park", "lat": 45.37836955, "lng": -75.72399933}, {"name": "Silas Bradley Park", "lat": 45.25103658, "lng": -75.89469269}, {"name": "Alfred Taylor Recreation Facility - North Gower", "lat": 45.13089299, "lng": -75.70990829}, {"name": "Rideau Canoe Club", "lat": 45.36858087, "lng": -75.69941589}, {"name": "Greenboro Pavillion Community Building", "lat": 45.36310289, "lng": -75.64734269}, {"name": "Robinson Field", "lat": 45.41905665, "lng": -75.66819188}, {"name": "Navan Memorial Centre", "lat": 45.42121987, "lng": -75.42139598}, {"name": "Hibiscus Park", "lat": 45.27187102, "lng": -75.78038734}, {"name": "Percy Taverner Park", "lat": 45.39122884, "lng": -75.69132267}, {"name": "Plouffe Park", "lat": 45.4074125, "lng": -75.71446046}, {"name": "Chaudi\u00e8re Park", "lat": 45.40988733, "lng": -75.71358602}, {"name": "New Edinburgh Park", "lat": 45.43842485, "lng": -75.6850583}, {"name": "Village Green Park", "lat": 45.44916412, "lng": -75.67744637}, {"name": "Merivale Gardens Park", "lat": 45.32229391, "lng": -75.74012845}, {"name": "Manordale Park", "lat": 45.32992011, "lng": -75.76042209}, {"name": "Broughton Park", "lat": 45.31608793, "lng": -75.93605115}, {"name": "R. George Pushman Park", "lat": 45.3600684, "lng": -75.64798744}, {"name": "Cathcart Park", "lat": 45.43478426, "lng": -75.69293375}, {"name": "Kristina Kiss Park", "lat": 45.28132863, "lng": -75.87210658}, {"name": "Alvin Heights Park", "lat": 45.45136664, "lng": -75.65087178}, {"name": "Dumaurier Park", "lat": 45.35102296, "lng": -75.79217232}, {"name": "Highbury Woods", "lat": 45.28117571, "lng": -75.74537368}, {"name": "Guinness Park", "lat": 45.23966683, "lng": -75.73192604}, {"name": "Trend Park", "lat": 45.32841452, "lng": -75.78626799}, {"name": "Memorial Park at Fallowfield Station", "lat": 45.30009708, "lng": -75.73391214}, {"name": "Rooney Park", "lat": 45.2683947, "lng": -75.82593333}, {"name": "Mohawk Park", "lat": 45.34467227, "lng": -75.80436447}, {"name": "Springhurst Park", "lat": 45.41300944, "lng": -75.67281531}, {"name": "Lawson Park", "lat": 45.42699796, "lng": -75.64493262}, {"name": "Roland Michener Park", "lat": 45.3274217, "lng": -75.89566738}, {"name": "Parthia Park", "lat": 45.36219032, "lng": -75.72464581}, {"name": "Eleanor Park", "lat": 45.36311546, "lng": -75.72908903}, {"name": "Redpine Park", "lat": 45.34942095, "lng": -75.72186357}, {"name": "Ray Friel Recreation Complex and Park", "lat": 45.4717057, "lng": -75.49213884}, {"name": "Petrie Island Park", "lat": 45.50362577, "lng": -75.49002708}, {"name": "Alta Vista Park", "lat": 45.38372657, "lng": -75.66638173}, {"name": "Watershield Park", "lat": 45.28793992, "lng": -75.72903737}, {"name": "Stormwater Management Area", "lat": 45.27117273, "lng": -75.77678557}, {"name": "River Mist Park", "lat": 45.24232754, "lng": -75.73408846}, {"name": "Recreational Trail", "lat": 45.32021032, "lng": -75.78279079}, {"name": "Cassia Circle Park", "lat": 45.48105637, "lng": -75.46543108}, {"name": "Anthony Vincent Park", "lat": 45.45338735, "lng": -75.65923071}, {"name": "Marier Avenue Park", "lat": 45.43774461, "lng": -75.66228002}, {"name": "Reid Park", "lat": 45.39769261, "lng": -75.72402763}, {"name": "Copeland Park", "lat": 45.36384672, "lng": -75.7494491}, {"name": "Uplands Riverside Park", "lat": 45.33811229, "lng": -75.69366816}, {"name": "Reston Park", "lat": 45.36500083, "lng": -75.62488454}, {"name": "Rideau Country Estates South Park", "lat": 45.02763513, "lng": -75.74556409}, {"name": "Lenida Drive Park", "lat": 45.1247346, "lng": -75.71753013}, {"name": "Barrington Park", "lat": 45.45666075, "lng": -75.52197654}, {"name": "Lisa Park", "lat": 45.34442059, "lng": -75.78901346}, {"name": "Brookfield Park", "lat": 45.37382521, "lng": -75.6764322}, {"name": "Citiplace Park", "lat": 45.3490971, "lng": -75.70934072}, {"name": "Blanchfield School", "lat": 45.16383277, "lng": -75.57043511}, {"name": "Cumberland Millennium Sports Park", "lat": 45.4662921, "lng": -75.44721736}, {"name": "Butterfly Park", "lat": 45.32038292, "lng": -75.59888904}, {"name": "Cline Park", "lat": 45.36285176, "lng": -75.7583495}, {"name": "Piazza Dante Park", "lat": 45.40536309, "lng": -75.70849607}, {"name": "Roy Duncan Park", "lat": 45.39582914, "lng": -75.75573644}, {"name": "Navaho Park", "lat": 45.36091458, "lng": -75.75754312}, {"name": "Clare Gardens Park", "lat": 45.38834377, "lng": -75.74822637}, {"name": "Robyn Guest Park", "lat": 45.40834144, "lng": -75.6974336}, {"name": "Blackstone Park", "lat": 45.27690788, "lng": -75.88658178}, {"name": "Littlerock Park", "lat": 45.32701859, "lng": -75.59223159}, {"name": "Mancini Park", "lat": 45.27084888, "lng": -75.73356648}, {"name": "Overbrook Park", "lat": 45.42540306, "lng": -75.65619825}, {"name": "Appaloosa Park", "lat": 45.29606075, "lng": -75.87122068}, {"name": "Upcountry Park", "lat": 45.24583498, "lng": -75.91011406}, {"name": "Galetta Community Centre", "lat": 45.42484167, "lng": -76.26157187}, {"name": "MacDonald Gardens Park", "lat": 45.43394414, "lng": -75.67748635}, {"name": "Vernon Recreation Centre", "lat": 45.16281864, "lng": -75.45396537}, {"name": "Alda Burt Park", "lat": 45.40250793, "lng": -75.62644875}, {"name": "Sheila McKee Memorial Park", "lat": 45.4061028, "lng": -75.92422254}, {"name": "Ashton Park and Cavanagh Community Centre", "lat": 45.15773167, "lng": -76.02927928}, {"name": "W. Erskine Johnson Arena", "lat": 45.34913352, "lng": -76.03878735}, {"name": "Primrose Park", "lat": 45.41116114, "lng": -75.71408818}, {"name": "Dundonald Park", "lat": 45.41295411, "lng": -75.70111897}, {"name": "Avebury Park", "lat": 45.46093814, "lng": -75.47793716}, {"name": "Chamberlain Park", "lat": 45.40621441, "lng": -75.6955473}, {"name": "Manor Park", "lat": 45.45140079, "lng": -75.65675398}, {"name": "Ed Hollyer Park", "lat": 45.31758461, "lng": -75.89410372}, {"name": "Recreational Trail (Hydro Corridor)", "lat": 45.33700403, "lng": -75.773316}, {"name": "Geoff Wightman Park", "lat": 45.35245081, "lng": -75.69681763}, {"name": "City View Park", "lat": 45.35284008, "lng": -75.73650733}, {"name": "Tom Schonberg Park", "lat": 45.29175005, "lng": -75.7917476}, {"name": "Recreational Trail (Hydro Corridor)", "lat": 45.26664803, "lng": -75.94541648}, {"name": "Rideauview Park", "lat": 45.3676331, "lng": -75.70680692}, {"name": "Whittle-Winter Park", "lat": 45.15602464, "lng": -75.6536445}, {"name": "Priam Way Park", "lat": 45.31481811, "lng": -75.83994689}, {"name": "Pineglen Park", "lat": 45.32541639, "lng": -75.7087657}, {"name": "Stanstead Park", "lat": 45.36292625, "lng": -75.67237256}, {"name": "Stormwater Management Area", "lat": 45.31132114, "lng": -75.93398085}, {"name": "Elizabeth Manley Park", "lat": 45.3700854, "lng": -75.61820602}, {"name": "Recreational Trail (Hydro Corridor)", "lat": 45.28805975, "lng": -75.8537853}, {"name": "Jack Purcell Park", "lat": 45.41522433, "lng": -75.68931824}, {"name": "Four Seasons Park", "lat": 45.27507353, "lng": -75.69107617}, {"name": "Alcide Trudeau Park (Vars)", "lat": 45.3562406, "lng": -75.35100772}, {"name": "Poole Creek Pathway (East)", "lat": 45.26369012, "lng": -75.92476145}, {"name": "Grassy Plains Park", "lat": 45.27753362, "lng": -75.85126453}, {"name": "Bairds Park", "lat": 45.4711166, "lng": -76.21417851}, {"name": "Bruce Timmermans Park", "lat": 45.38216741, "lng": -75.67129167}, {"name": "White Horse Park", "lat": 45.23409462, "lng": -75.68115738}, {"name": "Watters Park", "lat": 45.47965097, "lng": -75.48180885}, {"name": "Valin Park and South Fallingbrook Community Centre", "lat": 45.47156538, "lng": -75.46371089}, {"name": "Hornets Nest Park", "lat": 45.44242395, "lng": -75.57744072}, {"name": "Chapel Hill Park", "lat": 45.45068407, "lng": -75.53906743}, {"name": "Sawmill Creek Pool Park", "lat": 45.35058071, "lng": -75.6355961}, {"name": "Moffatt Farm Veterans Park", "lat": 45.3600085, "lng": -75.69398257}, {"name": "Fifth Avenue Parkette", "lat": 45.40084865, "lng": -75.68998413}, {"name": "Langstaff Drive Soccer Fields", "lat": 45.34918437, "lng": -76.03440823}, {"name": "Southwood Park", "lat": 45.37573241, "lng": -75.62156261}, {"name": "St-Laurent Complex / Don Gamble Community Centre", "lat": 45.43635111, "lng": -75.64738773}, {"name": "Grandma\u00eetre Ecological Reserve", "lat": 45.49833011, "lng": -75.5019136}, {"name": "Des Pionniers Park", "lat": 45.47228513, "lng": -75.48115555}, {"name": "Westboro Kiwanis Park", "lat": 45.38360774, "lng": -75.75354744}, {"name": "Glebe Memorial Park", "lat": 45.40475066, "lng": -75.69909631}, {"name": "Mahoney Park", "lat": 45.39900407, "lng": -75.74998164}, {"name": "Champlain Park", "lat": 45.40469674, "lng": -75.74538515}, {"name": "Grey Nuns Park", "lat": 45.46788147, "lng": -75.53985269}, {"name": "Tr\u00e8va Cousineau Park", "lat": 45.46948277, "lng": -75.53518855}, {"name": "Friar Gate Park", "lat": 45.47166829, "lng": -75.53616679}, {"name": "City Centre Park", "lat": 45.4282925, "lng": -75.61743675}, {"name": "Combermere Park", "lat": 45.45946546, "lng": -75.61440214}, {"name": "Marquis Park", "lat": 45.44555821, "lng": -75.60046983}, {"name": "Applewood Park", "lat": 45.38808321, "lng": -75.66889918}, {"name": "Karsh Park", "lat": 45.37404943, "lng": -75.61264004}, {"name": "Minto Park", "lat": 45.41677305, "lng": -75.68808899}, {"name": "Beauclaire Park", "lat": 45.48650484, "lng": -75.52845848}, {"name": "Judge Park", "lat": 45.35606734, "lng": -75.79860179}, {"name": "Ballantyne Park", "lat": 45.41259394, "lng": -75.68108164}, {"name": "St-Denis Parkette", "lat": 45.44060616, "lng": -75.66343384}, {"name": "Gus Este Park", "lat": 45.27859199, "lng": -75.7057468}, {"name": "Pierre Rocque Park", "lat": 45.47526876, "lng": -75.52541777}, {"name": "Manotick Remembrance Park", "lat": 45.22761717, "lng": -75.68363132}, {"name": "Gow Park", "lat": 45.32583368, "lng": -75.90185999}, {"name": "Silverbirch Park", "lat": 45.44310058, "lng": -75.52927693}, {"name": "Flannery Green", "lat": 45.36448399, "lng": -75.68250611}, {"name": "Westwood Park", "lat": 45.37716425, "lng": -75.76735519}, {"name": "Coronation Park", "lat": 45.40954941, "lng": -75.65086457}, {"name": "Troyes Park", "lat": 45.48385435, "lng": -75.52506754}, {"name": "Apollo Crater Park", "lat": 45.47607444, "lng": -75.48838087}, {"name": "Herbert and Estelle Brown Park ", "lat": 45.43338901, "lng": -75.67316747}, {"name": "LeBoutillier Park", "lat": 45.4447419, "lng": -75.63468411}, {"name": "Hope Cloutier Park", "lat": 45.29265212, "lng": -75.87696999}, {"name": "Judy Laughton Park", "lat": 45.31663498, "lng": -75.93022623}, {"name": "Tulip Tree Park", "lat": 45.43337187, "lng": -75.51285175}, {"name": "Stonebridge Trail", "lat": 45.26216104, "lng": -75.72458191}, {"name": "Stormwater Management Area", "lat": 45.44194445, "lng": -75.48488033}, {"name": "Ouellette Park", "lat": 45.45133408, "lng": -75.48949339}, {"name": "Proudmore Romina Park", "lat": 45.27276186, "lng": -75.86361041}, {"name": "Logan Lea Park", "lat": 45.33499627, "lng": -75.91128892}, {"name": "Mary Scott Park", "lat": 45.47208994, "lng": -75.55580983}, {"name": "Kanata Town Centre Stormwater Pond", "lat": 45.31475244, "lng": -75.8983294}, {"name": "Aston Woods Park", "lat": 45.1766114, "lng": -75.63477696}, {"name": "March Central Community Centre and Park", "lat": 45.37673799, "lng": -75.95522756}, {"name": "Stormwater Management Area", "lat": 45.35497273, "lng": -75.34226256}, {"name": "Florizel Park", "lat": 45.31333633, "lng": -75.83675794}, {"name": "Andy Moffitt Trail", "lat": 45.27611156, "lng": -75.74483066}, {"name": "Ernie Calcutt Park", "lat": 45.36565604, "lng": -75.68569792}, {"name": "Jules Morin Park", "lat": 45.43358705, "lng": -75.68209964}, {"name": "Half Moon Bay Park", "lat": 45.2531438, "lng": -75.73786986}, {"name": "Glen Cairn Community Centre / Morrena Park", "lat": 45.29605928, "lng": -75.88531212}, {"name": "Nepean Pond Park", "lat": 45.34695261, "lng": -75.71186855}, {"name": "Young's Pond Park", "lat": 45.29965109, "lng": -75.89804222}, {"name": "Notre-Dame-des-Champs Park", "lat": 45.42935417, "lng": -75.49292673}, {"name": "Recreational Trail (Hydro Corridor)", "lat": 45.34855533, "lng": -75.9450265}, {"name": "Trillium Woods Park", "lat": 45.34102157, "lng": -75.93327006}, {"name": "Kennedy Craig Forest", "lat": 45.29159453, "lng": -75.71563478}, {"name": "Calzavara Family Park", "lat": 45.37404182, "lng": -75.60710481}, {"name": "Paget Park", "lat": 45.37029508, "lng": -75.68581975}, {"name": "Greenpointe Park", "lat": 45.27660914, "lng": -75.72695745}, {"name": "Trevor Park", "lat": 45.31600953, "lng": -75.81723436}, {"name": "Marlene Catterall Park", "lat": 45.35529637, "lng": -75.80149279}, {"name": "J.J. Clarke Park", "lat": 45.29325045, "lng": -75.86293697}, {"name": "Maloja Park", "lat": 45.28737661, "lng": -75.92752097}, {"name": "Celebration Park", "lat": 45.36784846, "lng": -75.73493705}, {"name": "Yves Richer Park", "lat": 45.46266442, "lng": -75.49920907}, {"name": "Ambleside Park", "lat": 45.37319295, "lng": -75.78061754}, {"name": "Recreational Trail", "lat": 45.36639966, "lng": -75.62488454}, {"name": "Kindle Court Park", "lat": 45.45860001, "lng": -75.6170073}, {"name": "Serenade Park", "lat": 45.27027007, "lng": -75.68151702}, {"name": "Cahill Park", "lat": 45.34754202, "lng": -75.66642811}, {"name": "Sindy Hooper", "lat": 45.33387945, "lng": -75.9159195}, {"name": "Echowoods Park", "lat": 45.27173186, "lng": -75.94242045}, {"name": "Bellfield Park", "lat": 45.34778896, "lng": -75.80117469}, {"name": "Woodlot", "lat": 45.43570545, "lng": -75.51390481}, {"name": "Slate Park", "lat": 45.27253898, "lng": -75.90431537}, {"name": "Ruth Wildgen Park", "lat": 45.35082743, "lng": -75.79561774}, {"name": "Fringewood Park - Phase 2", "lat": 45.27570147, "lng": -75.91130161}, {"name": "Burnett Park", "lat": 45.27692112, "lng": -75.75895474}, {"name": "Rideau River Trail", "lat": 45.41428694, "lng": -75.67090977}, {"name": "Monk Meadow Park", "lat": 45.33043689, "lng": -75.89567306000001}, {"name": "Nivens Woods", "lat": 45.45624513, "lng": -75.61668427}, {"name": "Jock River Landing", "lat": 45.26054028, "lng": -75.70879462}, {"name": "Watters Woods", "lat": 45.28123825, "lng": -75.72486368}, {"name": "Paul Lindsay Park", "lat": 45.26792742, "lng": -75.91240003}, {"name": "Richcraft Recreation Complex - Kanata", "lat": 45.34041857, "lng": -75.92974364}, {"name": "Youth Gym and 55 Plus Club", "lat": 45.36776385, "lng": -75.70048743}, {"name": "Sheffield Glen Park", "lat": 45.39769425, "lng": -75.61425036}, {"name": "Nanaimo Park", "lat": 45.34258142, "lng": -75.79907387}, {"name": "Berrigan Park", "lat": 45.27617864, "lng": -75.74771078}, {"name": "Wyldwood Park", "lat": 45.26351316, "lng": -75.92071213}, {"name": "McEwen Park", "lat": 45.37163455, "lng": -75.78108164}, {"name": "Byrd Park", "lat": 45.31052461, "lng": -75.8949033}, {"name": "Star Park", "lat": 45.3137651, "lng": -75.91925653}, {"name": "Queensway Park", "lat": 45.42744487, "lng": -75.60727002}, {"name": "Quarry Park", "lat": 45.44856108, "lng": -75.61177467}, {"name": "Watt's Creek Park", "lat": 45.31603454, "lng": -75.88993571}, {"name": "McCarthy Park", "lat": 45.35174416, "lng": -75.6742301}, {"name": "Rabbi Bulka Kindness Park", "lat": 45.38538647, "lng": -75.64624579}, {"name": "Cardinal Creek Community Park", "lat": 45.47846938, "lng": -75.45777116}, {"name": "Clarke Bellinger Environmental Facility", "lat": 45.2922597, "lng": -75.70852593}, {"name": "STORMWTER MANAGEMENT AREA", "lat": 45.27354885, "lng": -75.90193419}, {"name": "Penfield Parkette", "lat": 45.32875632, "lng": -75.89177025}, {"name": "Echo Park", "lat": 45.16946808, "lng": -75.63898245}, {"name": "Navan Centennial Park", "lat": 45.41962477, "lng": -75.42152016}, {"name": "Maxime Park", "lat": 45.42377061, "lng": -75.60721177}, {"name": "Ernest Smith Park", "lat": 45.3190796, "lng": -75.89120241}, {"name": "Corrigan Pond", "lat": 45.2591421, "lng": -75.7341942}, {"name": "Carleton Heights Park", "lat": 45.35936214, "lng": -75.70227511}, {"name": "Frank J. Licari Park", "lat": 45.36856447, "lng": -75.6578142}, {"name": "Escarpment Park (Knudson)", "lat": 45.31978027, "lng": -75.90672389}, {"name": "Edward Craig Park", "lat": 45.13525697, "lng": -75.72784309}, {"name": "Elmhurst Park", "lat": 45.35930947, "lng": -75.78589562}, {"name": "Hillside Estates Park", "lat": 45.51536628, "lng": -75.38422493}, {"name": "Riverside Terrace Park", "lat": 45.40052951, "lng": -75.75347072}, {"name": "Dorey Park", "lat": 45.30294209, "lng": -75.90504353}, {"name": "Morgan's Grant Woods Park", "lat": 45.34785378, "lng": -75.93149747}, {"name": "Hazeldean Woods Park (Tamblin Park)", "lat": 45.30450854, "lng": -75.89107193}, {"name": "Barnett Park", "lat": 45.51696646, "lng": -75.43080111}, {"name": "Heritage Park", "lat": 45.45342236, "lng": -75.53530066}, {"name": "Hawthorne Park", "lat": 45.39386498, "lng": -75.61531974}, {"name": "Arnott Park", "lat": 45.36206821, "lng": -75.68077213}, {"name": "Blackburn Park", "lat": 45.4300059, "lng": -75.56294662}, {"name": "Champagne Park", "lat": 45.45503347, "lng": -75.51557547}, {"name": "Monk Environmental Park", "lat": 45.33964718, "lng": -75.9275395}, {"name": "Larsen Park", "lat": 45.31145315, "lng": -75.88487467}, {"name": "Ridgeview Park", "lat": 45.34991069, "lng": -75.77850331}, {"name": "Lismer Pines Park", "lat": 45.33399019, "lng": -75.91642253}, {"name": "Open Space (Hydro Corridor)", "lat": 45.38507089, "lng": -75.74357994}, {"name": "Cancer Survivors Park", "lat": 45.41151468, "lng": -75.6573027}, {"name": "Ralph Street Park", "lat": 45.25776217, "lng": -75.91670988}, {"name": "Watershield Ridge Stormwater Dry Pond", "lat": 45.2876114, "lng": -75.72953478}, {"name": "Robert F. Legget Park", "lat": 45.40610867, "lng": -75.67594525}, {"name": "Village Green Stormwater Facility", "lat": 45.32002386, "lng": -75.88950992}, {"name": "Amberway Park", "lat": 45.27678945, "lng": -75.91918687}, {"name": "Fairmile West Park", "lat": 45.06498553, "lng": -75.65635507}, {"name": "Ravenscroft Park", "lat": 45.35474981, "lng": -75.92021528}, {"name": "Crownridge Park", "lat": 45.27391635, "lng": -75.84641108}, {"name": "Gregory Casey Stormwater Management Facility", "lat": 45.25784462, "lng": -75.771798}, {"name": "Woodhill Park", "lat": 45.43500858, "lng": -75.57414224}, {"name": "Bill Teron Park", "lat": 45.31334468, "lng": -75.9118141}, {"name": "La Verendrye Park", "lat": 45.45560303, "lng": -75.60465545}, {"name": "Lawren Harris Park", "lat": 45.3336384, "lng": -75.91227292}, {"name": "Presland Park", "lat": 45.42301244, "lng": -75.64884871}, {"name": "Ledbury Park and Pavilion", "lat": 45.3663312, "lng": -75.65649043}, {"name": "Walkley Albion Park", "lat": 45.37204443, "lng": -75.65458597}, {"name": "Murphy Park", "lat": 45.294823, "lng": -75.69670437}, {"name": "Riverside Memorial Park", "lat": 45.42453977, "lng": -75.6657053}, {"name": "Ogilvie North Park", "lat": 45.42609959, "lng": -75.63529613}, {"name": "Somerset Square", "lat": 45.40615697, "lng": -75.72214013}, {"name": "Utman Park", "lat": 45.28631924, "lng": -75.74054822}, {"name": "Varennes Park", "lat": 45.47776253, "lng": -75.47263727}, {"name": "Ski Hill Park", "lat": 45.45130716, "lng": -75.60275071}, {"name": "Sugar Creek Park", "lat": 45.26064601, "lng": -75.93408023}, {"name": "Trillium Park", "lat": 45.43684014, "lng": -75.6006305}, {"name": "Fairmile River Access", "lat": 45.06478344, "lng": -75.65456878}, {"name": "Major W. Ross Chamberlain Park", "lat": 45.21817636, "lng": -75.67595868}, {"name": "Pebble Trail Park", "lat": 45.26371962, "lng": -75.58396217}, {"name": "Freshwater Parkette", "lat": 45.2521682, "lng": -75.74645288}, {"name": "Fringewood Park and Community Centre", "lat": 45.27914162, "lng": -75.91086927}, {"name": "Turtle Park", "lat": 45.32168722, "lng": -75.60349599}, {"name": "Insmill Park", "lat": 45.31062362, "lng": -75.92604796}, {"name": "Oakview Park", "lat": 45.34231669, "lng": -75.74119652}, {"name": "Victoria Park", "lat": 45.23588579, "lng": -75.47359694}, {"name": "Brucelands Park", "lat": 45.3340425, "lng": -75.80146514}, {"name": "Open Space", "lat": 45.33304873, "lng": -75.78948755}, {"name": "Deevy Pines Park", "lat": 45.28919613, "lng": -75.85615854}, {"name": "Fairfield Park", "lat": 45.4410749, "lng": -75.60593882}, {"name": "Isaiah Scharfe Park", "lat": 45.43758277, "lng": -75.56607442}, {"name": "Tom Brown Arena", "lat": 45.40803451, "lng": -75.72215502}, {"name": "Sandalwood Park", "lat": 45.37803558, "lng": -75.64749638}, {"name": "Rancourt Park", "lat": 45.46385461, "lng": -75.46032688}, {"name": "St-Jacques Parkette", "lat": 45.44137442, "lng": -75.66354524}, {"name": "Billings Park", "lat": 45.39639949, "lng": -75.64931526}, {"name": "Bob Rainboth Park", "lat": 45.44727734, "lng": -75.58905168}, {"name": "Chorus Park", "lat": 45.25457307, "lng": -75.6926773}, {"name": "Stinson Park", "lat": 45.28274188, "lng": -75.72907649}, {"name": "Recreational Trail", "lat": 45.2760809, "lng": -75.75359891}, {"name": "Mulligan Park", "lat": 45.29201934, "lng": -75.73628656}, {"name": "Winston Square", "lat": 45.3911871, "lng": -75.75634188}, {"name": "Yves Ch\u00e9nier Park", "lat": 45.4402814, "lng": -75.34245192}, {"name": "Ridge Park", "lat": 45.44412725, "lng": -75.59828338}, {"name": "FEEDMILL CREEK RECREATIONAL TRAIL", "lat": 45.27406692, "lng": -75.93921472}, {"name": "St. Luke's Park", "lat": 45.41526622, "lng": -75.68663599}, {"name": "Jim Malone Park", "lat": 45.31739018, "lng": -75.9220232}, {"name": "Orlando Park Annex", "lat": 45.38188294, "lng": -75.65740242}, {"name": "Linton Park", "lat": 45.36484024, "lng": -75.66760639}, {"name": "Colonnade Park", "lat": 45.34070171, "lng": -75.72248454}, {"name": "Millstone Park", "lat": 45.49796374, "lng": -75.46998937}, {"name": "Recreational Trail (Hydro Corridor)", "lat": 45.34664285, "lng": -75.94105249}, {"name": "Parkland (6977 Viola Street)", "lat": 45.09193874, "lng": -75.73507662}, {"name": "Agnes Purdy Park", "lat": 45.43279217, "lng": -75.56862079}, {"name": "Cyrville Park", "lat": 45.41940894, "lng": -75.60761464}, {"name": "Stonehenge Park", "lat": 45.42122134, "lng": -75.60053991}, {"name": "Portobello Park", "lat": 45.4573861, "lng": -75.46927786}, {"name": "Station Park", "lat": 45.28765677, "lng": -75.74300168}, {"name": "Alfred McCoy Park", "lat": 45.25864109, "lng": -75.93684987}, {"name": "Leather Leaf Park", "lat": 45.28622498, "lng": -75.73673735}, {"name": "Coyote Run Park", "lat": 45.24674252, "lng": -75.91882177}, {"name": "Woodroffe Park", "lat": 45.3763248, "lng": -75.77290651}, {"name": "McCann Park", "lat": 45.39990023, "lng": -75.70847587}, {"name": "Andrea Thompson Park", "lat": 45.39302782, "lng": -75.60851911}, {"name": "Queenswood Heights Centennial Park and Community Centre", "lat": 45.47052423, "lng": -75.50760108}, {"name": "Lynwood Park", "lat": 45.31938173, "lng": -75.82078734}, {"name": "Cedarcroft Park", "lat": 45.42465382, "lng": -75.61337509}, {"name": "Mattawa Park", "lat": 45.30005483, "lng": -75.85484613}, {"name": "Sawmill Creek Constructed Wetlands", "lat": 45.35910153, "lng": -75.66066552}, {"name": "Woodlot", "lat": 45.43445567, "lng": -75.63239307}, {"name": "Parkland (650 Lakeridge Drive)", "lat": 45.44940546, "lng": -75.47591824}, {"name": "Carson Grove Park", "lat": 45.43741214, "lng": -75.62167465}, {"name": "Cardinal Farm Park", "lat": 45.46151011, "lng": -75.50431769}, {"name": "Hayward Park", "lat": 45.30332893, "lng": -75.90251051}, {"name": "Gilbey Park", "lat": 45.35930565, "lng": -75.73294243}, {"name": "Poole Creek Pathway (West)", "lat": 45.2564581, "lng": -75.93058291}, {"name": "Ken Steele Park", "lat": 45.42862213, "lng": -75.63058333}, {"name": "Mosquito Creek Park", "lat": 45.28146302, "lng": -75.69757484}, {"name": "Pleasant Park Woods", "lat": 45.39248923, "lng": -75.65115625}, {"name": "Recreational Trail", "lat": 45.34045444, "lng": -75.62871162}, {"name": "Richmond Oaks Park", "lat": 45.19281308, "lng": -75.84678469}, {"name": "Clarke Fields Park", "lat": 45.26137374, "lng": -75.76970103}, {"name": "Fraser Fields Parkette", "lat": 45.26253184, "lng": -75.76413903}, {"name": "Nairn Park", "lat": 45.28951023, "lng": -75.89463387}, {"name": "Legacy Skate Park", "lat": 45.34553192, "lng": -75.76098788}, {"name": "Raoul Wallenberg Park", "lat": 45.3508771, "lng": -75.71335141}, {"name": "Bob Mitchell Park", "lat": 45.34425142, "lng": -75.73811703}, {"name": "Big Bird Park", "lat": 45.48640872, "lng": -75.50788845}, {"name": "Forest Glen Park", "lat": 45.45690891, "lng": -75.54498724}, {"name": "Ottawa River Pathway", "lat": 45.4892615, "lng": -75.52845848}, {"name": "Terry Fox Participark", "lat": 45.47584447, "lng": -75.53836223}, {"name": "Montgomery Memorial Park / Old Town Hall Community Centre", "lat": 45.41298961, "lng": -75.67988909}, {"name": "Bridlewood Urban Forest", "lat": 45.29015845, "lng": -75.8544158}, {"name": "Kenmore Community Hall", "lat": 45.22898424, "lng": -75.41572766}, {"name": "Valleyland", "lat": 45.17938055, "lng": -75.82465143}, {"name": "Bethune Park", "lat": 45.33248745, "lng": -75.89835803}, {"name": "Daybreak Park", "lat": 45.28176878, "lng": -75.70462372}, {"name": "Laura Dubois Park", "lat": 45.29766049, "lng": -75.86552555}, {"name": "Roy G. Hobbs Community Centre and Park", "lat": 45.4876348, "lng": -75.52152532}, {"name": "Linda Thom Park", "lat": 45.39058166, "lng": -75.67827733}, {"name": "Pony Park", "lat": 45.28512057, "lng": -75.86566251}, {"name": "West Carleton War Memorial", "lat": 45.34536167, "lng": -76.03925931}, {"name": "Devonian Park", "lat": 45.3208952, "lng": -75.94054568}, {"name": "Pinhey's Point Park", "lat": 45.4378106, "lng": -75.95856881}, {"name": "Gospel Oak Park", "lat": 45.28338252, "lng": -75.73237697}, {"name": "David Bartlett Park", "lat": 45.24474882, "lng": -75.69989422}, {"name": "Jim Durrell Recreation Centre", "lat": 45.37296134, "lng": -75.6591894}, {"name": "Kanata Leisure Centre and Wave Pool", "lat": 45.31154999, "lng": -75.89927797}, {"name": "Appleford Park", "lat": 45.44059632, "lng": -75.59868363}, {"name": "Ryan Farm Park", "lat": 45.34772279, "lng": -75.75307573}, {"name": "Barry Mullen Park", "lat": 45.360417, "lng": -75.85638509}, {"name": "Nimiq Park", "lat": 45.28417851, "lng": -75.67357497}, {"name": "Grandeur Park", "lat": 45.35920435, "lng": -75.80485915}, {"name": "Nepean Sportsplex Park", "lat": 45.32687971, "lng": -75.74395652}, {"name": "Presland Park Woods", "lat": 45.42303887, "lng": -75.64719024}, {"name": "Meadowbrook Park (Rideau)", "lat": 45.13942048, "lng": -75.71875082}, {"name": "Stormwater Management Area (Faulkner Drain)", "lat": 45.24866446, "lng": -75.89870188}, {"name": "Recreational Trail (Hydro Corridor)", "lat": 45.33285923, "lng": -75.7420964}, {"name": "Recreational Trail (Hydro Corridor)", "lat": 45.29644916, "lng": -75.86306145}, {"name": "Richmond Memorial Park and Cenotaph", "lat": 45.19430249, "lng": -75.83831646}, {"name": "Branchwood Park", "lat": 45.27755969, "lng": -75.70484377}, {"name": "Cresthaven Park", "lat": 45.28357672, "lng": -75.70828907}, {"name": "Tom Thomson Park", "lat": 45.3301466, "lng": -75.89974159}, {"name": "Marchand Park", "lat": 45.41835227, "lng": -75.62493758}, {"name": "Clarence Maheral Park", "lat": 45.29035734, "lng": -75.87800698}, {"name": "River Run Park", "lat": 45.25266224, "lng": -75.74412463}, {"name": "Edward Kidd Parkette", "lat": 45.1381997, "lng": -75.72164153}, {"name": "Lindenshade Park", "lat": 45.27050186, "lng": -75.73788271}, {"name": "Harwick Park", "lat": 45.32074159, "lng": -75.82535774}, {"name": "West River Drive Park", "lat": 45.2288788, "lng": -75.68338089}, {"name": "Open Space (Hydro Corridor)", "lat": 45.33646963, "lng": -75.7389557}, {"name": "Recreational Trail (Hydro Corridor)", "lat": 45.33044907, "lng": -75.74648955}, {"name": "Valleyland", "lat": 45.49174803, "lng": -75.49326941}, {"name": "Maki Park", "lat": 45.34928664, "lng": -75.83245774}, {"name": "Dylan Way Park", "lat": 45.28783693, "lng": -75.71248742}, {"name": "Old March Town Hall Park", "lat": 45.3553825, "lng": -75.93385407}, {"name": "St. Fran\u00e7ois Park", "lat": 45.45207433, "lng": -75.51909604}, {"name": "Appleton Park", "lat": 45.42546545, "lng": -75.60093676}, {"name": "Mountain Meadows Park", "lat": 45.28437316, "lng": -75.68484323}, {"name": "Pine Vista Park", "lat": 45.47428385, "lng": -75.44694986}, {"name": "Remic Beach Complex", "lat": 45.40347063, "lng": -75.75008363}, {"name": "George McLean Park", "lat": 45.23425789, "lng": -75.69591736}, {"name": "Stormwater Management Area", "lat": 45.26406033, "lng": -75.73324166}, {"name": "Woodlot", "lat": 45.36020325, "lng": -75.62951441}, {"name": "Faircrest Heights Park", "lat": 45.39838342, "lng": -75.64815065}, {"name": "Craig Henry Park", "lat": 45.3338276, "lng": -75.77714014}, {"name": "Banyon Park", "lat": 45.26608815, "lng": -75.94364173}, {"name": "Stormwater Management Area", "lat": 45.35723822, "lng": -75.93662477}, {"name": "Bluegrass Park", "lat": 45.28555891, "lng": -75.85924389}, {"name": "Recreational Trail", "lat": 45.44282139, "lng": -75.4866878}, {"name": "Pretty Street Community Centre", "lat": 45.25843128, "lng": -75.91884932}, {"name": "Cardinal Creek Valley", "lat": 45.48019243, "lng": -75.45619562}, {"name": "Parkland (Hydro Corridor)", "lat": 45.31947093, "lng": -75.90176373}, {"name": "Gill Park", "lat": 45.48654077, "lng": -76.03839485}, {"name": "Graham Creek Green Space", "lat": 45.33771063, "lng": -75.79555856}, {"name": "Recreational Trail", "lat": 45.33290947, "lng": -75.73606811}, {"name": "Dante Park", "lat": 45.32929582, "lng": -75.81234411}, {"name": "Harbour View Park", "lat": 45.26889937, "lng": -75.70834664}, {"name": "Valleystream Park", "lat": 45.33989146, "lng": -75.80804562}, {"name": "Jack Charron Arena", "lat": 45.29358909, "lng": -75.8838218}, {"name": "Furness Park", "lat": 45.28449035, "lng": -75.70520908}, {"name": "South Sawmill Creek Park", "lat": 45.34734792, "lng": -75.6285976}, {"name": "Owl Valley Park / Shoreline Park", "lat": 45.2776903, "lng": -75.68839958}, {"name": "Craig Park", "lat": 45.32426876, "lng": -75.90622151}, {"name": "Ludger Landry Park", "lat": 45.34591077, "lng": -75.51828191}, {"name": "Urban Natural Area (CLC Lands at Lester)", "lat": 45.33850284, "lng": -75.63276128}, {"name": "Sandpiper Cove Park", "lat": 45.4931461, "lng": -75.49375097}, {"name": "Blue Rock Park", "lat": 45.15746999, "lng": -75.64497199}, {"name": "Stormwater Management Area", "lat": 45.27847881, "lng": -75.70523738}, {"name": "Sweetnam Park", "lat": 45.27442631, "lng": -75.91313234}, {"name": "Hopetown Park", "lat": 45.25062593, "lng": -75.90374683}, {"name": "Blair Park", "lat": 45.28647469, "lng": -75.70003911}, {"name": "Jeffrey Armstrong Memorial Park", "lat": 45.25171192, "lng": -75.69762012}, {"name": "Ogilvie South Park", "lat": 45.44075752, "lng": -75.59596326}, {"name": "G\u00e9rald Poulin Park", "lat": 45.44421589, "lng": -75.53857812}, {"name": "Osgoode Community Centre", "lat": 45.14740746, "lng": -75.6014498}, {"name": "Mud Creek Park", "lat": 45.21694763, "lng": -75.70338057}, {"name": "Chris Bracken Park", "lat": 45.22754101, "lng": -75.67861717}, {"name": "Doug Thompson Pathway", "lat": 45.22510247, "lng": -75.62128065}, {"name": "Baroness Park", "lat": 45.28855969, "lng": -75.70294147}, {"name": "Alexander Grove Park", "lat": 45.25982386, "lng": -75.92675496}, {"name": "Arbeatha Park", "lat": 45.31629928, "lng": -75.82323486}, {"name": "Laurier Carri\u00e8re Park", "lat": 45.46669612, "lng": -75.52324356}, {"name": "Bonaventure Park", "lat": 45.47263567, "lng": -75.53445408}, {"name": "Fred G. Barrett Arena", "lat": 45.33111627, "lng": -75.59792332}, {"name": "Sutherland Drive Park", "lat": 45.1659412, "lng": -75.6370932}, {"name": "Vernon Park", "lat": 45.15992795, "lng": -75.4623863}, {"name": "Balena Park", "lat": 45.40573351, "lng": -75.64402725}, {"name": "Healey's Heath Park", "lat": 45.23627637, "lng": -75.91206343}, {"name": "Madison Park", "lat": 45.36961831, "lng": -75.73777139}, {"name": "Fairmile Estates Park", "lat": 45.06566663, "lng": -75.6622407}, {"name": "Joe Rowan Park", "lat": 45.23760106, "lng": -75.46587687}, {"name": "Malvern Park", "lat": 45.28072493, "lng": -75.76137034}, {"name": "Recreational Trail (Hydro Corridor)", "lat": 45.42720466, "lng": -75.60556604}, {"name": "Parkland (485 Villeneuve Private)", "lat": 45.42574271, "lng": -75.62907978}, {"name": "Fentiman Park", "lat": 45.31483043, "lng": -75.92048845}, {"name": "Queenswood Ridge Park", "lat": 45.47735952, "lng": -75.50325234}, {"name": "Bridgeport Parkette North", "lat": 45.21904649, "lng": -75.67485949}, {"name": "Riverain Park", "lat": 45.42969631, "lng": -75.66966558}, {"name": "Osgoode Gardens Woodlot", "lat": 45.2556291, "lng": -75.60168032}, {"name": "Stormwater Management Area", "lat": 45.34257584, "lng": -75.93600678}, {"name": "Woodlot - Brichland Cres", "lat": 45.25071725, "lng": -75.93004621}, {"name": "Cedardale Park", "lat": 45.32153279, "lng": -75.69277126}, {"name": "Winfield Park", "lat": 45.35083555, "lng": -75.80318309}, {"name": "Tauvette Park", "lat": 45.42667798, "lng": -75.57296141}, {"name": "Golflinks Park", "lat": 45.25749164, "lng": -75.72289101}, {"name": "Ghosh Park", "lat": 45.37661473, "lng": -75.61013338}, {"name": "Recreational Trail", "lat": 45.41798193, "lng": -75.66457798}, {"name": "Forestbrook Park", "lat": 45.34496948, "lng": -75.94027241}, {"name": "Horace Park", "lat": 45.27056733, "lng": -75.76205975}, {"name": "Grammercy Park", "lat": 45.36590902, "lng": -75.73731025}, {"name": "Alphabet Park", "lat": 45.36598974, "lng": -75.74170944}, {"name": "Recreational Trail", "lat": 45.36181548, "lng": -75.64585106}, {"name": "Finchley Park", "lat": 45.27854717, "lng": -75.72989771}, {"name": "Fern Park", "lat": 45.24497111, "lng": -75.60483531}, {"name": "Louis Turner Park", "lat": 45.35014966, "lng": -75.95028135}, {"name": "Palsen Park", "lat": 45.3483662, "lng": -75.73557724}, {"name": "Juanita Snelgrove Park", "lat": 45.35622874, "lng": -75.92586298}, {"name": "Richcraft Sensplex (Ottawa East)", "lat": 45.45706922, "lng": -75.5912205}, {"name": "McGibbon Park", "lat": 45.30905124, "lng": -75.90358786}, {"name": "Berry Glen Park", "lat": 45.26731536, "lng": -75.71290568}, {"name": "Pebble Trail Woods Park", "lat": 45.26366166, "lng": -75.58515796}, {"name": "Greely West Park", "lat": 45.24944001, "lng": -75.59881624}, {"name": "Country Estates Parkland", "lat": 45.27073855, "lng": -75.5164601}, {"name": "Winthrop Park", "lat": 45.34805551, "lng": -75.82589988}, {"name": "Dog Bone Park", "lat": 45.28769442, "lng": -75.88424925}, {"name": "Rickey Place Park", "lat": 45.29088899, "lng": -75.88568765}, {"name": "Open Space", "lat": 45.36801739, "lng": -75.63739675}, {"name": "Walter Baker Park", "lat": 45.29457369, "lng": -75.90243414}, {"name": "Hewitt Park", "lat": 45.30627316, "lng": -75.88604856}, {"name": "Houlahan Park and West Houlahan Park", "lat": 45.26732893, "lng": -75.76177462}, {"name": "Isaie Savage Park", "lat": 45.42606452, "lng": -75.48552735}, {"name": "Neilson Park", "lat": 45.33170948, "lng": -75.91346342}, {"name": "Manotick Boat Launch", "lat": 45.23087484, "lng": -75.67993032}, {"name": "Russvern Park", "lat": 45.13762121, "lng": -75.71207847}, {"name": "Marathon Park", "lat": 45.36055838, "lng": -76.12117214}, {"name": "Fran\u00e7ois Dupont Park", "lat": 45.48975264, "lng": -75.5211188}, {"name": "Garneau Park", "lat": 45.46353031, "lng": -75.52317282}, {"name": "Stoneboat Park", "lat": 45.47319547, "lng": -75.5326532}, {"name": "Lavalee Plaza Park", "lat": 45.42910919, "lng": -75.48496758}, {"name": "Cathedral Park", "lat": 45.45429754, "lng": -75.52296519}, {"name": "Cummings Park", "lat": 45.43124343, "lng": -75.63533451}, {"name": "Kincardine Park", "lat": 45.29077083, "lng": -75.89602353}, {"name": "Sunray Park", "lat": 45.25425104, "lng": -75.90722736}, {"name": "Recreational Trail (Hydro Corridor)", "lat": 45.41882341, "lng": -75.60096615}, {"name": "Recreational Trail", "lat": 45.35835975, "lng": -75.64212738}, {"name": "Fountainhead Park", "lat": 45.42544585, "lng": -75.51935189}, {"name": "Recreational Trail", "lat": 45.28664433, "lng": -75.86147428}, {"name": "Recreational Trail (Hydro Corridor)", "lat": 45.3079488, "lng": -75.88874906}, {"name": "Fallingbrook Park", "lat": 45.48181568, "lng": -75.4896681}, {"name": "Irwin Gate Park", "lat": 45.30404311, "lng": -75.8806762}, {"name": "Meadowbreeze Park", "lat": 45.27394642, "lng": -75.85471141}, {"name": "North Vineyard Park", "lat": 45.47380887, "lng": -75.55047197}, {"name": "Roy Park", "lat": 45.44986335, "lng": -75.53028863}, {"name": "Ladybug Park", "lat": 45.36680891, "lng": -75.6351266}, {"name": "Linda Dunn Park", "lat": 45.4713585, "lng": -75.46501235}, {"name": "Sandy Hill Arena", "lat": 45.41929123, "lng": -75.6742877}, {"name": "Fisher Park", "lat": 45.3961475, "lng": -75.7310856}, {"name": "Albert Argue Black Park", "lat": 45.28245583, "lng": -75.92277939}, {"name": "Kenmore Bicentennial Park", "lat": 45.23363812, "lng": -75.41651085}, {"name": "Water Dragon Park", "lat": 45.27193244, "lng": -75.72204886}, {"name": "Upper Poole Creek Wetland", "lat": 45.25356118, "lng": -75.93286902}, {"name": "Stormwater Management Area", "lat": 45.24950467, "lng": -75.92063225}, {"name": "Harkness Park", "lat": 45.36503591, "lng": -75.46397713}, {"name": "Forestglade Park", "lat": 45.37508885, "lng": -75.6011214}, {"name": "Fawn Meadow Park", "lat": 45.34328911, "lng": -75.62717178}, {"name": "Kemp Woodland", "lat": 45.26154766, "lng": -75.91194952}, {"name": "Russell Boyd Park", "lat": 45.35258794, "lng": -75.62594924}, {"name": "Lalande Conservation Park", "lat": 45.46011288, "lng": -75.4617181}, {"name": "Sweetvalley Park", "lat": 45.44210127, "lng": -75.48115864}, {"name": "Ray McCaffrey Park", "lat": 45.24915581, "lng": -75.89879489}, {"name": "Joe Lewis Park", "lat": 45.27488538, "lng": -75.94044316}, {"name": "Open Space", "lat": 45.194325, "lng": -75.82832908}, {"name": "Recreational Trail", "lat": 45.27661526, "lng": -75.75452066}, {"name": "Carp Memorial Hall", "lat": 45.34459045, "lng": -76.03620085}, {"name": "Billings Estate Museum", "lat": 45.3890347, "lng": -75.6729977}, {"name": "Panda Park", "lat": 45.27269121, "lng": -75.7282068}, {"name": "Summerhill Park", "lat": 45.26756038, "lng": -75.69551411}, {"name": "Cassandra Park", "lat": 45.35607561, "lng": -75.34176052}, {"name": "Harthill Way Linear Park", "lat": 45.26602634, "lng": -75.7564259}, {"name": "Anish\u00e0 Park", "lat": 45.3123664, "lng": -75.59650901}, {"name": "Kanata Town Centre Gateway", "lat": 45.31609828, "lng": -75.89867994}, {"name": "Rockhurst Park", "lat": 45.39752059, "lng": -75.74215147}, {"name": "Open Space", "lat": 45.46831175, "lng": -75.52431026}, {"name": "Churchill Seniors' Recreation Centre", "lat": 45.3923401, "lng": -75.75440354}, {"name": "Ottawa River Pathway", "lat": 45.47980012, "lng": -75.55394431}, {"name": "Brettonwood Parkette", "lat": 45.30273531, "lng": -75.93340152}, {"name": "Regatta Park", "lat": 45.24760212, "lng": -75.73551821}, {"name": "Orchard Park", "lat": 45.25192076, "lng": -75.71436824}, {"name": "Maestro Park", "lat": 45.28608444, "lng": -75.92932412}, {"name": "Sylvia Holden Park Annex", "lat": 45.40302781, "lng": -75.68225398}, {"name": "Dunrobin Shores Park", "lat": 45.46299249, "lng": -75.9720944}, {"name": "Mosquito Creek Valley at Limebank Road", "lat": 45.28385269, "lng": -75.66428772}, {"name": "Urban Natural Area (East of Albion Road)", "lat": 45.31542384, "lng": -75.615101}, {"name": "Wolf Point Woods", "lat": 45.2822994, "lng": -75.69011456}, {"name": "Tintern Park", "lat": 45.25474963, "lng": -75.58929217}, {"name": "West Bridle Path Park", "lat": 45.34753861, "lng": -75.65013709}, {"name": "Recreational Trail", "lat": 45.34313874, "lng": -75.63063264}, {"name": "Chapman Mills West Woodlot", "lat": 45.27450759, "lng": -75.73352962}, {"name": "Timagami Court Woodlot", "lat": 45.16810584, "lng": -75.63821077}, {"name": "Boothfield Park", "lat": 45.28885393, "lng": -75.66486774}, {"name": "Chanonhouse Park", "lat": 45.19350922, "lng": -75.82387783}, {"name": "Sarah McCarthy Park", "lat": 45.19510739, "lng": -75.84435748}, {"name": "Kinburn Community Centre", "lat": 45.39365498, "lng": -76.18814843}, {"name": "Mosquito Creek Corridor", "lat": 45.28872882, "lng": -75.6860511}, {"name": "Conroy Woods", "lat": 45.37268618, "lng": -75.63996984}, {"name": "Swansea Woods", "lat": 45.37710671, "lng": -75.61590347}, {"name": "Riverwood Park", "lat": 45.34008847, "lng": -75.69620473}, {"name": "Cedarlakes Park", "lat": 45.24269467, "lng": -75.58689087}, {"name": "Horace Seabrook Park", "lat": 45.12975508, "lng": -75.71660949}, {"name": "Janeville Park", "lat": 45.43700684, "lng": -75.65506782}, {"name": "Carillon Park", "lat": 45.43777043, "lng": -75.66124653}, {"name": "Allenby Park", "lat": 45.34877973, "lng": -75.92903478}, {"name": "Saint-Louis Woods", "lat": 45.48530036, "lng": -75.53847648}, {"name": "Ottawa Business Park", "lat": 45.38200218, "lng": -75.62050105}, {"name": "Arcadia Park", "lat": 45.30489062, "lng": -75.93492618}, {"name": "Conroy Swamp / Greenboro Turtlehead Nature Area", "lat": 45.37062122, "lng": -75.63410884}, {"name": "River Road Woods", "lat": 45.32506464, "lng": -75.69432105}, {"name": "Earl Armstrong Road - North Woods", "lat": 45.27909066, "lng": -75.6803203}, {"name": "Recreational Trail (Hydro Corridor)", "lat": 45.34524582, "lng": -75.76227402}, {"name": "Park - 5671 Watterson Street", "lat": 45.21467673, "lng": -75.69603938}, {"name": "Recreational Trail (Hydro Corridor)", "lat": 45.38944211, "lng": -75.74485508}, {"name": "JIM DURRELL WOODS", "lat": 45.37419322, "lng": -75.65733159}, {"name": "Rideau Country Estates North East Park", "lat": 45.03403913, "lng": -75.74927086}, {"name": "Rideau Country Estates Centre Park", "lat": 45.03270476, "lng": -75.7517339}, {"name": "Richelieu Park", "lat": 45.44404025, "lng": -75.66108804}, {"name": "Howard A. Maguire Park", "lat": 45.24303534, "lng": -75.90905281}, {"name": "Dogwood Park and Munster Hamlet Community Centre", "lat": 45.16325546, "lng": -75.93944556}, {"name": "Strandherd Ultimate Fields", "lat": 45.26092845, "lng": -75.77645128}, {"name": "East Bridle Path Park", "lat": 45.34958595, "lng": -75.64258569}, {"name": "Woodlot", "lat": 45.39464507, "lng": -75.64938076}, {"name": "Par-La-Ville Park", "lat": 45.28866293, "lng": -75.92293241}, {"name": "Stewart Martin Park", "lat": 45.51625038, "lng": -75.40725039}, {"name": "Orchard Hollow Park", "lat": 45.22009953, "lng": -75.6708476}, {"name": "Farmstead Ridge Park", "lat": 45.12282077, "lng": -75.71999522}, {"name": "Mather Award Ditch", "lat": 45.38585098, "lng": -75.61515947}, {"name": "Wisteria Park", "lat": 45.34087785, "lng": -75.67025285}, {"name": "Ainsley Park", "lat": 45.3581611, "lng": -75.74919643}, {"name": "Richardson Heritage Park", "lat": 45.31797397, "lng": -75.94003871}, {"name": "Creekview Park", "lat": 45.31386547, "lng": -75.61451194}, {"name": "Doug Rivington Park", "lat": 45.34374353, "lng": -76.02580081}, {"name": "South Vernon Park", "lat": 45.15060945, "lng": -75.44993698}, {"name": "Recreational Trail (Hydro Corridor)", "lat": 45.3497126, "lng": -75.94748499}, {"name": "Stroughton Park", "lat": 45.16757561, "lng": -75.94033048}, {"name": "Todd Pond", "lat": 45.25282501, "lng": -75.74024699}, {"name": "Tempest Park", "lat": 45.28509175, "lng": -75.91786108}, {"name": "Richmond Memorial Community Centre and Arena", "lat": 45.19570053, "lng": -75.83780164}, {"name": "Exploration Garden", "lat": 45.40637404, "lng": -75.68998746}, {"name": "Green Jacket Park - (FUTURE)", "lat": 45.25139475, "lng": -75.60737445}, {"name": "Frenette Park", "lat": 45.47556103, "lng": -75.46696662}, {"name": "Voyager Creek Valley", "lat": 45.45609066, "lng": -75.54699256}, {"name": "Tucana Park", "lat": 45.25629826, "lng": -75.73332043}, {"name": "Harwood Park", "lat": 45.39177646, "lng": -75.97342141}, {"name": "Woodlot", "lat": 45.43653414, "lng": -75.6304152}, {"name": "Fosterbrook Park", "lat": 45.2681269, "lng": -75.77696783}, {"name": "Centennial Park", "lat": 45.22155001, "lng": -75.68801944}, {"name": "A.Y. Jackson Park", "lat": 45.22817038, "lng": -75.6826346}, {"name": "Ottertail Woods", "lat": 45.28400129, "lng": -75.68687738}, {"name": "Havencrest Woods Park", "lat": 45.27268675, "lng": -75.7853309}, {"name": "Nault Park", "lat": 45.44146117, "lng": -75.65873509}, {"name": "Torbolton Hall / Torbolton Garage", "lat": 45.44818715, "lng": -76.09509315}, {"name": "Aquaview Park", "lat": 45.45354288, "lng": -75.47782096}, {"name": "Recreational Trail (Hydro Corridor)", "lat": 45.29036895, "lng": -75.84695712}, {"name": "Aladdin Park", "lat": 45.34126195, "lng": -75.63423253}, {"name": "Millers Point Park", "lat": 45.22676146, "lng": -75.6953518}, {"name": "Recreational Trail", "lat": 45.28526888, "lng": -75.74795697}, {"name": "Huntley Community Centre", "lat": 45.3499753, "lng": -76.03887528}, {"name": "Rossignol Park", "lat": 45.49022987, "lng": -75.4968669}, {"name": "Ottawa River Pathway", "lat": 45.49158622, "lng": -75.50388181}, {"name": "Harry Craig Centre", "lat": 45.17444519, "lng": -75.71541062}, {"name": "Fitzroy Harbour Community Centre and Campbell Bicentennial Park", "lat": 45.46960263, "lng": -76.20600538}, {"name": "Vista Park", "lat": 45.44970562, "lng": -75.47202521}, {"name": "Temporary Parkette (2017-2022)", "lat": 45.41647284, "lng": -75.694924}, {"name": "Recreational Trail (Hydro Corridor)", "lat": 45.3300732, "lng": -75.76795923}, {"name": "St. Ambroise Park", "lat": 45.43840369, "lng": -75.66883366}, {"name": "Quarry Ridge Trail", "lat": 45.48066115, "lng": -75.52817568}, {"name": "Diefenbunker Baseball Diamond", "lat": 45.35196525, "lng": -76.05195229}, {"name": "Dr. O.B. Wilson Park", "lat": 45.21710878, "lng": -75.68238558}, {"name": "Herb Johnston Park", "lat": 45.2620299, "lng": -75.56626751}, {"name": "Kings Grant Park", "lat": 45.1999743, "lng": -75.83551237}, {"name": "Osgoode Nature Reserve", "lat": 45.2544673, "lng": -75.60168032}, {"name": "Bandmaster Park", "lat": 45.28696065, "lng": -75.9207025}, {"name": "Cecil Morrison Park", "lat": 45.41725192, "lng": -75.64553815}, {"name": "Woodlot", "lat": 45.4833064, "lng": -75.49893371}, {"name": "Bernard-Grandma\u00eetre Arena", "lat": 45.43293248, "lng": -75.65548319}, {"name": "Minto Recreation Complex - Barrhaven", "lat": 45.25250146, "lng": -75.73329284}, {"name": "Lamprey Park", "lat": 45.24354611, "lng": -75.73802011}, {"name": "Carlington Woods", "lat": 45.36932485, "lng": -75.74156461}, {"name": "Bellwood Parkette", "lat": 45.39237765, "lng": -75.68014745}, {"name": "Sawmill Creek Park Pathway Systems", "lat": 45.35032121, "lng": -75.63499971}, {"name": "Heron Road Community Centre", "lat": 45.3789607, "lng": -75.6539494}, {"name": "Recreational Trail", "lat": 45.264262, "lng": -75.77112316}, {"name": "Stuemer Park", "lat": 45.50562301, "lng": -75.4880504}, {"name": "Pauline Vanier Park", "lat": 45.36706246, "lng": -75.67684284}, {"name": "Aquaview Pond", "lat": 45.45571525, "lng": -75.4796963}, {"name": "Recreational Trail (Hydro Corridor)", "lat": 45.29303283, "lng": -75.85321879}, {"name": "Glandriel Park", "lat": 45.47444094, "lng": -75.45275306}, {"name": "Taylor Creek Valley", "lat": 45.48949535, "lng": -75.48868233}, {"name": "Bilberry Creek Valley", "lat": 45.46580857, "lng": -75.51136531}, {"name": "Goddard Street Park", "lat": 45.21668504, "lng": -75.69374692}, {"name": "Marion Dewar Plaza", "lat": 45.42145256, "lng": -75.69068554}, {"name": "Hummingbird Park", "lat": 45.37003201, "lng": -75.62530191}, {"name": "Bel-Air Park", "lat": 45.35753188, "lng": -75.76266191}, {"name": "Firefly Park", "lat": 45.37044793, "lng": -75.63079626}, {"name": "Allegro Park", "lat": 45.44720736, "lng": -75.47658996}, {"name": "North River Road Parkette", "lat": 45.43276922, "lng": -75.66964403}, {"name": "Recreational Trail (Hydro Corridor)", "lat": 45.28605184, "lng": -75.86145511}, {"name": "McKendry Park", "lat": 45.23767756, "lng": -75.47848508}, {"name": "Ferguson Pratt Park", "lat": 45.135362, "lng": -75.71399683}, {"name": "Victor Cyr Woods", "lat": 45.4490707, "lng": -75.51163347}, {"name": "Rideau River Islands", "lat": 45.38753668, "lng": -75.68244128}, {"name": "Trevor Vance Park", "lat": 45.37641688, "lng": -75.99352104}, {"name": "Kilbirnie Park", "lat": 45.24771217, "lng": -75.72398765}, {"name": "Leitrim Park", "lat": 45.33061891, "lng": -75.59401553}, {"name": "Marlborough Park", "lat": 45.09035294, "lng": -75.75667942}, {"name": "Jensen Court Park", "lat": 45.34879592, "lng": -76.03143421}, {"name": "Westcliffe Estate Hydro Corridor", "lat": 45.31993315, "lng": -75.83466266}, {"name": "Edgehill Park", "lat": 45.37651692, "lng": -75.66342764}, {"name": "Saddlebrook Park", "lat": 45.38268421, "lng": -76.03405448}, {"name": "Rideau Veterans Home Memorial Park", "lat": 45.39974237, "lng": -75.65508016}, {"name": "Bradley Ridge Park", "lat": 45.42690425, "lng": -75.52624107}, {"name": "Trustee M. Curry Park", "lat": 45.24784048, "lng": -75.90538591}, {"name": "Lexington Park", "lat": 45.36919863, "lng": -75.71334704}, {"name": "W.C. Levesque Fields", "lat": 45.26313214, "lng": -75.72643038}, {"name": "Arbuckle Park", "lat": 45.18795819, "lng": -75.84272417}, {"name": "Hidden Lake Park", "lat": 45.35547898, "lng": -76.04016695}, {"name": "Leitrim North-South Swale", "lat": 45.31793897, "lng": -75.61007041}, {"name": "Van Rens Park", "lat": 45.23032133, "lng": -75.46652223}, {"name": "Cobble Hill Park", "lat": 45.26365185, "lng": -75.7721676}, {"name": "Harold Barnhart Park", "lat": 45.22989837, "lng": -75.64052004}, {"name": "Recreational Trail", "lat": 45.3608482, "lng": -75.69549746}, {"name": "Greenboro Skateboard Park", "lat": 45.3754272, "lng": -75.62606002}, {"name": "Canterbury Park", "lat": 45.39037848, "lng": -75.62895252}, {"name": "Parkway Park", "lat": 45.35597131, "lng": -75.77600852}, {"name": "Brewer Park", "lat": 45.38696719, "lng": -75.6889477}, {"name": "Beaverbrook Park", "lat": 45.32079497, "lng": -75.89709592}, {"name": "Emerald Woods Park", "lat": 45.34514587, "lng": -75.63996504}, {"name": "Whooping Crane Park", "lat": 45.26411068, "lng": -75.6863047}, {"name": "Cumberland Nature Trail", "lat": 45.5066356, "lng": -75.43114471}, {"name": "George Nelms Sports Park", "lat": 45.24181664, "lng": -75.65282609}, {"name": "Caserta Park", "lat": 45.4869159, "lng": -75.48280777}, {"name": "Athans Park", "lat": 45.355563, "lng": -75.6249052}, {"name": "Britannia Park", "lat": 45.36233046, "lng": -75.8006748}, {"name": "Parkland (2312 Esprit Drive)", "lat": 45.45008228, "lng": -75.46828525}, {"name": "Goldfinch Park", "lat": 45.42615087, "lng": -75.51210226}, {"name": "Dick Bell Park", "lat": 45.35166871, "lng": -75.82685154}, {"name": "Terry Fox Park", "lat": 45.47481605, "lng": -75.54095912}, {"name": "Rouncey Park", "lat": 45.2756437, "lng": -75.88193132}, {"name": "Buckles Municipal Drain", "lat": 45.13306373, "lng": -75.60175109}, {"name": "Maplewood Park", "lat": 45.27871562, "lng": -75.84135938}, {"name": "Campobello Park", "lat": 45.28775608, "lng": -75.92554561}, {"name": "Osgoode Gardens Cedar Acres Municipal Drain (Shield's Creek)", "lat": 45.25649316, "lng": -75.56978049}, {"name": "Blue Willow Park", "lat": 45.43701905, "lng": -75.52824785}, {"name": "Barrhaven Mews Park", "lat": 45.26569751, "lng": -75.75513893}, {"name": "Recreational Trail", "lat": 45.27308319, "lng": -75.77631022}, {"name": "Henri-Rocque Park", "lat": 45.44655068, "lng": -75.48362353}, {"name": "Recreational Trail (Transitway)", "lat": 45.45893455, "lng": -75.47691833}, {"name": "Hutton Park", "lat": 45.40129365, "lng": -75.63066013}, {"name": "Recreational Trail", "lat": 45.44862653, "lng": -75.63675884}, {"name": "Sylvia Holden Park", "lat": 45.40221373, "lng": -75.68208344}, {"name": "St-Charles Park", "lat": 45.44098087, "lng": -75.6732221}, {"name": "Kiwanis Park", "lat": 45.43646041, "lng": -75.65306138}, {"name": "Stormwater Management Area", "lat": 45.29296769, "lng": -75.79071431}, {"name": "Lower Bilberry Creek Valley", "lat": 45.48246485, "lng": -75.53811364}, {"name": "Darjeeling Park", "lat": 45.26269453, "lng": -75.74517877}, {"name": "Elevation Park", "lat": 45.2385379, "lng": -75.74494349}, {"name": "Recreational Trail", "lat": 45.25041471, "lng": -75.55337578}, {"name": "Stormwater Management Area (Fraser-Clarke Drain)", "lat": 45.2636827, "lng": -75.75049307}, {"name": "Clarity Park", "lat": 45.26258269, "lng": -75.75590841}, {"name": "Long Island Aquatic Club", "lat": 45.23086981, "lng": -75.67918821}, {"name": "Stormwater Management Area", "lat": 45.19510067, "lng": -75.84375181}, {"name": "Georges Dassylva Park", "lat": 45.43990268, "lng": -75.49094255}, {"name": "Feed Mill Creek Park", "lat": 45.27015009, "lng": -75.94579249}, {"name": "Shoreway Woods Park", "lat": 45.25173511, "lng": -75.55526213}, {"name": "Grande All\u00e9e Park", "lat": 45.40942538, "lng": -75.67722725}, {"name": "Forecourt Park", "lat": 45.40988875, "lng": -75.67558927}, {"name": "Bridgeport Parkette South", "lat": 45.21872893, "lng": -75.6744221}, {"name": "Black Raven Community Park", "lat": 45.24146986, "lng": -75.74100233}, {"name": "Richardson Ridge Nature Trail", "lat": 45.32170561, "lng": -75.93739445}, {"name": "Vinette Silo Park", "lat": 45.4832605, "lng": -75.50522344}, {"name": "Hillside Vista Park", "lat": 45.48450036, "lng": -75.50301605}, {"name": "Alliance Park", "lat": 45.45240311, "lng": -75.63473468}, {"name": "Grasshopper Hill/Kilborn Park", "lat": 45.3891918, "lng": -75.65115625}, {"name": "Stormwater Management Area", "lat": 45.2778097, "lng": -75.93558131}, {"name": "Stormwater Management Area", "lat": 45.27843098, "lng": -75.68341242}, {"name": "3095 Riverside Park - (FUTURE)", "lat": 45.36259495, "lng": -75.68638378}, {"name": "Jock River District Park - South (FUTURE)", "lat": 45.25561911, "lng": -75.75318579}, {"name": "Jock River District Park \u2013 North (FUTURE)", "lat": 45.25887513, "lng": -75.73692731}, {"name": "Stormwater Management Area", "lat": 45.27164941, "lng": -75.9414429}, {"name": "Eaglehead Park", "lat": 45.27372868, "lng": -75.93865216}, {"name": "William Bradley Park", "lat": 45.24735325, "lng": -75.91472305}, {"name": "Bayshore Park", "lat": 45.35030186, "lng": -75.80911047}, {"name": "Lela Scharf Park", "lat": 45.21644305, "lng": -75.67211673}, {"name": "Stormwater Management Area (Mahogany Creek)", "lat": 45.21750431, "lng": -75.67820023}, {"name": "Lyndon Hooper Park", "lat": 45.3072498, "lng": -75.93104742}, {"name": "NCC Aubrey Moodie Park", "lat": 45.3114892, "lng": -75.82399922}, {"name": "Beaton Park", "lat": 45.29516111, "lng": -75.8844064}, {"name": "Bob MacQuarrie Recreation Complex - Orl\u00e9ans", "lat": 45.46638977, "lng": -75.54504401}, {"name": "Merak Park", "lat": 45.24826335, "lng": -75.75084488}, {"name": "Jock River District Park - East (FUTURE)  ", "lat": 45.25928121, "lng": -75.73493809}, {"name": "Katimavik Woods", "lat": 45.31395839, "lng": -75.88452933}, {"name": "RECREATION TRAIL", "lat": 45.31662951, "lng": -75.94003871}, {"name": "RECREATION TRAIL", "lat": 45.31583378, "lng": -75.94003871}, {"name": "Hunsdeep Rangar Park", "lat": 45.4417701, "lng": -75.49420117}, {"name": "Stormwater Management Area", "lat": 45.26645235, "lng": -75.57893358}, {"name": "Hermas Saumur Family Forest", "lat": 45.47837181, "lng": -75.51024176}, {"name": "Ben Franklin Park East", "lat": 45.3246036, "lng": -75.76968198}, {"name": "Mystery Park", "lat": 45.48163349, "lng": -75.53811364}, {"name": "Recreational Trail (Hydro Corridor)", "lat": 45.4559594, "lng": -75.47097846}, {"name": "Burma Stormwater Management Pond", "lat": 45.44976963, "lng": -75.62906299}, {"name": "Stormwater Management Area (Findley Creek)", "lat": 45.31959718, "lng": -75.58326036}, {"name": "Bert Dowler Park", "lat": 45.32399786, "lng": -75.58333439}, {"name": "Albion Falls Park", "lat": 45.26039367, "lng": -75.75401522}, {"name": "Mantha Park", "lat": 45.50208674, "lng": -75.46683639}, {"name": "Patrick Dugas Park", "lat": 45.43592972, "lng": -75.50930566}, {"name": "Leitrim Stormwater Management Pond 2", "lat": 45.31841428, "lng": -75.61276075}, {"name": "Lt. Col. William Barker VC Park", "lat": 45.45343488, "lng": -75.63355737}, {"name": "Caprihani Trailhead", "lat": 45.48087855, "lng": -75.46101451}, {"name": "Cardinal Creek Valley North", "lat": 45.49756126, "lng": -75.47493503}, {"name": "Recreational Trail", "lat": 45.4981053, "lng": -75.47273826}, {"name": "Meynell Park", "lat": 45.18512647, "lng": -75.84734866}, {"name": "Washka Park", "lat": 45.21738697, "lng": -75.66620565}, {"name": "Stormwater Management Area (Maple Grove)", "lat": 45.29515707, "lng": -75.91428403}, {"name": "Diamond Jubilee Park", "lat": 45.31717338, "lng": -75.6105923}, {"name": "Recreational Trail (Hydro Corridor)", "lat": 45.46161635, "lng": -75.47971813}, {"name": "Chapman Mills West Woodlot", "lat": 45.2722826, "lng": -75.73334678}, {"name": "Woodlot", "lat": 45.49951684, "lng": -75.47132625}, {"name": "Ovation Park", "lat": 45.32412057, "lng": -75.59101081}, {"name": "Shuttleworth Park", "lat": 45.31996736, "lng": -75.58770422}, {"name": "Dowitcher Park", "lat": 45.24702601, "lng": -75.74485487}, {"name": "Stormwater Management Area (Kilspindie)", "lat": 45.25382985, "lng": -75.71169241}, {"name": "Trailsedge East Park - (FUTURE)", "lat": 45.43979906, "lng": -75.50308112}, {"name": "Ogilvy Square", "lat": 45.42637871, "lng": -75.69023808}, {"name": "Egbert Reitsma Parkette", "lat": 45.46940906, "lng": -76.20576791}, {"name": "Vanier Francophone Square", "lat": 45.43583511, "lng": -75.66131183}, {"name": "Lower Poole Creek Corridor", "lat": 45.27259474, "lng": -75.91569961}, {"name": "Lee Boltwood Park", "lat": 45.28208392, "lng": -75.89131338}, {"name": "Woodland Park", "lat": 45.51051776, "lng": -76.12904226}, {"name": "Brantwood Park", "lat": 45.40615855, "lng": -75.6719454}, {"name": "Heron Park", "lat": 45.38066028, "lng": -75.67721307}, {"name": "Barrett Farm Park", "lat": 45.32492002, "lng": -75.60525499}, {"name": "Maize Park ", "lat": 45.29100896, "lng": -75.91313297}, {"name": "Bradley Square", "lat": 45.24681945, "lng": -75.94159161}, {"name": "Richard Dagg Park", "lat": 45.43757101, "lng": -75.55456818}, {"name": "Beacon Hill North Recreation Centre", "lat": 45.4590595, "lng": -75.5992791}, {"name": "Porter Island", "lat": 45.43770045, "lng": -75.68242888}, {"name": "Laroche Park", "lat": 45.4084686, "lng": -75.72841691}, {"name": "Ruisseau Park Woodland", "lat": 45.43507051, "lng": -75.52492182}, {"name": "Dun Skipper Park", "lat": 45.30691125, "lng": -75.59531833}, {"name": "Mud Creek Stormwater Management Area", "lat": 45.43574757, "lng": -75.51939947}, {"name": "Ottawa-Carleton Trailway (part of the TransCanada Trail)", "lat": 45.24728171, "lng": -75.94082258}, {"name": "Bryanston Gate Park", "lat": 45.27797754, "lng": -75.92777541}, {"name": "Salamander Park", "lat": 45.31091715, "lng": -75.59290611}, {"name": "Ravine Park (Kanata)", "lat": 45.29457466, "lng": -75.87330533}, {"name": "Village Green Memorial Park", "lat": 45.32126617, "lng": -75.890309}, {"name": "Hawkeswood Park ", "lat": 45.26668392, "lng": -75.68964554}, {"name": "Stormwater Management Area (Grey's Creek)", "lat": 45.24857894, "lng": -75.61367642}, {"name": "CELESTIAL PARK", "lat": 45.25147827, "lng": -75.75288432}, {"name": "Miikana Park", "lat": 45.30640946, "lng": -75.60108348}, {"name": "Shadow Ridge Park", "lat": 45.25225586, "lng": -75.55573795}, {"name": "Recreational Trail (Hydro Corridor)", "lat": 45.29499802, "lng": -75.85886326}, {"name": "Memorial Grove Park", "lat": 45.27189821, "lng": -75.67728043}, {"name": "Kavanagh Green", "lat": 45.27174685, "lng": -75.92999425}, {"name": "Mark Yakabuski Park", "lat": 45.26843233, "lng": -75.88396316}, {"name": "Stormwater Management Area (Mahoney Creek)", "lat": 45.27511125, "lng": -75.88180629}, {"name": "Lola Park", "lat": 45.42324157, "lng": -75.65205643}, {"name": "Aura Park", "lat": 45.25997159, "lng": -75.76189745}, {"name": "Caltra Park", "lat": 45.23598814, "lng": -75.73547932}, {"name": "Susanna Kemp Park", "lat": 45.28471896, "lng": -75.8942509}, {"name": "Scala Park", "lat": 45.46278902, "lng": -75.46952052}, {"name": "David Shentow Park", "lat": 45.37830954, "lng": -75.7597228}, {"name": "Monahan Drain", "lat": 45.27454196, "lng": -75.85711088}, {"name": "LYNDALL WINTER TRAIL", "lat": 45.31979952, "lng": -75.93739445}, {"name": "Cambrian Road Woods", "lat": 45.24512364, "lng": -75.75592008}, {"name": "South March Highlands Conservation Forest - Urban Portion", "lat": 45.32429099, "lng": -75.93861523}, {"name": "Wing Officer Willa Walker Park", "lat": 45.44969591, "lng": -75.63682948}, {"name": "Eug\u00e8ne Martineau Park ", "lat": 45.4507061, "lng": -75.63175624}, {"name": "Coyote Trail Park", "lat": 45.47847279, "lng": -75.44897357}, {"name": "Green Briar Park", "lat": 45.38081782, "lng": -75.96378742}, {"name": "Claudette Cain Park", "lat": 45.27313024, "lng": -75.69896215}, {"name": "Winsome Park", "lat": 45.47423889, "lng": -75.46002312}, {"name": "Atrium Park", "lat": 45.26040688, "lng": -75.69292335}, {"name": "Rubicon Park", "lat": 45.27099724, "lng": -75.87922304}, {"name": "Bradley-Craig Park", "lat": 45.28280499, "lng": -75.89761527}, {"name": "Katimavik Woods Park North", "lat": 45.31498067, "lng": -75.88388533}, {"name": "Johnwoods Street Linear Park", "lat": 45.28212166, "lng": -75.92773197}, {"name": "Constantine Luty Park", "lat": 45.27441316, "lng": -75.87687478}, {"name": "Mountain Crescent Woods", "lat": 45.35301371, "lng": -75.64940121}, {"name": "Tallwood Woods", "lat": 45.33863083, "lng": -75.75615413}, {"name": "Upper Mosquito Creek", "lat": 45.28658555, "lng": -75.67091197}, {"name": "Armstrong Park", "lat": 45.32545961, "lng": -75.89110283}, {"name": "Bob Mills Park", "lat": 45.27227671, "lng": -75.87620625}, {"name": "Putney Woodland Park", "lat": 45.26996285, "lng": -75.89853516}, {"name": "Serendipity Linear Park", "lat": 45.50675466, "lng": -75.36153723}, {"name": "Don Boudria Park", "lat": 45.44448915, "lng": -75.49072491}, {"name": "Dalhousie South Park", "lat": 45.40210299, "lng": -75.70279773}, {"name": "Cindy Mitchell Park", "lat": 45.42765741, "lng": -75.67886921}, {"name": "Helen Redpath Thomson Park", "lat": 45.43532541, "lng": -75.63585419}, {"name": "Veteran's Park", "lat": 45.45343207, "lng": -75.62910641}, {"name": "Cappamore Park", "lat": 45.23580177, "lng": -75.72886629}, {"name": "Southcreek Village Park - (FUTURE)", "lat": 45.13650285, "lng": -75.60309302}]